[{"status": 0, "message": "ok", "results": [{"name": "商丘", "location": {"lat": 34.420202, "lng": 115.662449}, "uid": "8399702dc8e2ee51fe0eb0e7"}]}, {"status": 0, "message": "ok", "results": [{"name": "盱眙", "location": {"lat": 33.018255, "lng": 118.551444}, "uid": "4a3f640b740e4c06213bf2e9"}]}, {"status": 0, "message": "ok", "results": [{"name": "淮安", "location": {"lat": 33.616295, "lng": 119.021483}, "uid": "e0a7020e884d0b59b020a8e7"}]}, {"status": 0, "message": "ok", "results": [{"name": "高邮", "location": {"lat": 32.787148, "lng": 119.465614}, "uid": "6af0d4bbde1f0ace71210bee"}]}, {"status": 0, "message": "ok", "results": [{"name": "扬州", "location": {"lat": 32.400676, "lng": 119.419423}, "uid": "9e133d19c0cfce470f0a70e7"}]}, {"status": 0, "message": "ok", "results": [{"name": "仪征", "location": {"lat": 32.278091, "lng": 119.191469}, "uid": "51ee89470b488f6fa7c756ef"}]}, {"status": 0, "message": "ok", "results": [{"name": "南京", "location": {"lat": 32.064652, "lng": 118.802422}, "uid": "73d80fbb9cf7cc6a1d1d11e7"}]}, {"status": 0, "message": "ok", "results": [{"name": "芜湖", "location": {"lat": 31.358537, "lng": 118.439435}, "uid": "ea096813a3f0eefe01294fe6"}]}, {"status": 0, "message": "ok", "results": [{"name": "铜陵", "location": {"lat": 30.951233, "lng": 117.818481}, "uid": "30e0d0bb0c0014f8b6147fe7"}]}, {"status": 0, "message": "ok", "results": [{"name": "贵池", "location": {"lat": 30.693858, "lng": 117.574492}, "uid": "295364f512e914af45e274ea"}]}, {"status": 0, "message": "ok", "results": [{"name": "东流", "location": {"lat": 37.905961, "lng": 112.516391}, "address": "山西省太原市尖草坪区", "province": "山西省", "city": "太原市", "area": "尖草坪区", "detail": 0, "uid": "124115d282e57f532f473308"}, {"name": "停车场(东流街)", "location": {"lat": 37.909097, "lng": 112.515274}, "address": "山西省太原市尖草坪区和平北路297附近", "province": "山西省", "city": "太原市", "area": "尖草坪区", "street_id": "78ee1576ada119600bf5eb31", "detail": 1, "uid": "78ee1576ada119600bf5eb31"}, {"name": "金虎便利(东流街)", "location": {"lat": 37.907225, "lng": 112.52005}, "address": "尖草坪街道和平北路晋机厂东门马路对面", "province": "山西省", "city": "太原市", "area": "尖草坪区", "street_id": "776341969f12888cca213d4f", "detail": 1, "uid": "776341969f12888cca213d4f"}, {"name": "名发剪神(东流店)", "location": {"lat": 37.905752, "lng": 112.516772}, "address": "太原市和平北路268号", "province": "山西省", "city": "太原市", "area": "尖草坪区", "street_id": "f71bca2a8e8c719b77026937", "telephone": "13111098243", "detail": 1, "uid": "f71bca2a8e8c719b77026937"}, {"name": "西安风味(东流街店)", "location": {"lat": 37.905994, "lng": 112.519511}, "address": "汇丰街道东流街36号", "province": "山西省", "city": "太原市", "area": "尖草坪区", "telephone": "13620696597", "detail": 1, "uid": "5f59a4675b659b8eabf0cd9d"}, {"name": "日新商店(东流街店)", "location": {"lat": 37.906048, "lng": 112.518298}, "address": "东流街与丰裕小区五巷交叉口西100米", "province": "山西省", "city": "太原市", "area": "尖草坪区", "street_id": "754a0a13874f54453c9a5e04", "detail": 1, "uid": "754a0a13874f54453c9a5e04"}, {"name": "太原尖草坪信都村镇银行(东流支行)", "location": {"lat": 37.903837, "lng": 112.524263}, "address": "山西省太原市尖草坪区北中环街集祥小区A座底商", "province": "山西省", "city": "太原市", "area": "尖草坪区", "street_id": "e2f1aca4546d5441cac3dbaa", "telephone": "(0351)7783008,(0351)7783051", "detail": 1, "uid": "e2f1aca4546d5441cac3dbaa"}, {"name": "好邻居生鲜便利(东流街店)", "location": {"lat": 37.905887, "lng": 112.523212}, "address": "太原市尖草坪区小东流村丰庆苑小区5号楼6单元", "province": "山西省", "city": "太原市", "area": "尖草坪区", "telephone": "15234246165", "detail": 1, "uid": "ac2e5207ebd79c4aa1a93481"}, {"name": "晋城煤业集团太原公交公司晨光煤层气公司加气站(东流街)", "location": {"lat": 37.906018, "lng": 112.520177}, "address": "东流街与丰裕小区五巷交叉口东100米", "province": "山西省", "city": "太原市", "area": "尖草坪区", "street_id": "77bfb59e29650814c51e51ca", "detail": 1, "uid": "77bfb59e29650814c51e51ca"}, {"name": "公交四公司小东流车队自行车租赁点", "location": {"lat": 37.905985, "lng": 112.520658}, "address": "东流街与丰裕小区五巷交叉口东150米", "province": "山西省", "city": "太原市", "area": "尖草坪区", "street_id": "59a7c3f13003aae80bb93a16", "detail": 1, "uid": "59a7c3f13003aae80bb93a16"}]}, {"status": 0, "message": "ok", "results": [{"name": "潜山", "location": {"lat": 30.636756, "lng": 116.587614}, "uid": "62e82a2ffe531d422811d1ef"}]}, {"status": 0, "message": "ok", "results": [{"name": "彭泽", "location": {"lat": 29.902121, "lng": 116.555508}, "uid": "a880fc00209a4f4bb05c6ae9"}]}]