[{"status": 0, "message": "ok", "results": [{"name": "黄梅", "location": {"lat": 30.076605, "lng": 115.950464}, "uid": "cd4eb675b905a6d4770269e9"}]}, {"status": 0, "message": "ok", "results": [{"name": "南昌", "location": {"lat": 28.689455, "lng": 115.864585}, "uid": "dbfdcd488d1788696140a9e7"}]}, {"status": 0, "message": "ok", "results": [{"name": "始兴", "location": {"lat": 24.958558, "lng": 114.068567}, "uid": "4bd5e61f8d65c36b83a00ce8"}]}, {"status": 0, "message": "ok", "results": [{"name": "肇庆", "location": {"lat": 23.052889, "lng": 112.471488}, "uid": "f848490592b68e5dfea778e7"}]}, {"status": 0, "message": "ok", "results": [{"name": "德庆", "location": {"lat": 23.151372, "lng": 111.791552}, "uid": "4239efb77d31784b4c6d46ea"}]}, {"status": 0, "message": "ok", "results": [{"name": "罗定", "location": {"lat": 22.774296, "lng": 111.576479}, "uid": "2d094b4ef5cb2cfcc33644ea"}]}, {"status": 0, "message": "ok", "results": [{"name": "衡山", "location": {"lat": 27.235996, "lng": 112.875563}, "address": "湖南省衡阳市", "province": "湖南省", "city": "衡山县", "area": "衡山县", "detail": 0, "uid": "6f1259abad2e8a57f21937eb"}, {"name": "衡山西站", "location": {"lat": 27.253672, "lng": 112.796274}, "address": "衡阳市衡山县开云镇", "province": "湖南省", "city": "衡阳市", "area": "衡山县", "detail": 1, "uid": "839927515d1489be343a7148"}, {"name": "衡山路", "location": {"lat": 27.239786, "lng": 112.777246}, "address": "湖南省衡阳市", "province": "湖南省", "city": "衡山县", "area": "", "detail": 0, "uid": "decc2a3c56e2c864f5eafc46"}, {"name": "衡山大桥", "location": {"lat": 27.238178, "lng": 112.883485}, "address": "湖南省衡阳市", "province": "湖南省", "city": "衡山县", "area": "", "detail": 0, "uid": "982da0fea9cfa740cb09f05f"}, {"name": "衡山汽车站", "location": {"lat": 27.252333, "lng": 112.860158}, "address": "人民西路222号", "province": "湖南省", "city": "衡阳市", "area": "衡山县", "street_id": "4eb3b533f788db7543024522", "detail": 1, "uid": "4eb3b533f788db7543024522"}, {"name": "衡山县新桥镇", "location": {"lat": 27.375266, "lng": 112.536111}, "address": "湖南省衡阳市衡山县新桥镇政府(034县道西)", "province": "湖南省", "city": "衡阳市", "area": "衡山县", "detail": 1, "uid": "a3f21eee8183aa442fb17edf"}, {"name": "衡山大桥/解放北路(路口)", "location": {"lat": 27.240776, "lng": 112.881307}, "address": "衡阳市衡山县解放北路", "province": "湖南省", "city": "衡阳市", "area": "衡山县", "street_id": "07783af59b5cd3e4b320a896", "detail": 1, "uid": "07783af59b5cd3e4b320a896"}, {"name": "衡山县政府", "location": {"lat": 27.235902, "lng": 112.874879}, "address": "衡阳市衡山县交通街4栋101", "province": "湖南省", "city": "衡阳市", "area": "衡山县", "street_id": "0dc3d82d6a55936c75e5b623", "telephone": "(0734)5812451", "detail": 1, "uid": "0dc3d82d6a55936c75e5b623"}, {"name": "衡山神龙盈佳大酒店", "location": {"lat": 27.254787, "lng": 112.868447}, "address": "湖南省衡阳市衡山县衡山大道818号", "province": "湖南省", "city": "衡阳市", "area": "衡山县", "telephone": "(0734)2819999", "detail": 1, "uid": "3731e85a3f41bf6f15c90561"}, {"name": "衡山县人民医院", "location": {"lat": 27.238726, "lng": 112.876006}, "address": "衡阳市衡山县开云镇白石巷69号", "province": "湖南省", "city": "衡阳市", "area": "衡山县", "street_id": "b292b3aa5b9f9c56be484222", "detail": 1, "uid": "b292b3aa5b9f9c56be484222"}]}, {"status": 0, "message": "ok", "results": [{"name": "襄阳", "location": {"lat": 32.014797, "lng": 112.128533}, "uid": "514a79d8cd6e54eaaaf0cd0d"}]}, {"status": 0, "message": "ok", "results": [{"name": "嵩县", "location": {"lat": 34.140722, "lng": 112.092412}, "uid": "62ed05a521f094a72ce67bef"}]}, {"status": 0, "message": "ok", "results": [{"name": "叶县", "location": {"lat": 33.632491, "lng": 113.363586}, "uid": "3cafde09961641927369d3ed"}]}, {"status": 0, "message": "ok", "results": [{"name": "洛阳", "location": {"lat": 34.624264, "lng": 112.459424}, "uid": "3e23636a35284eacd618b7e7"}]}, {"status": 0, "message": "ok", "results": [{"name": "西安", "location": {"lat": 34.347269, "lng": 108.946465}, "uid": "6004101013367be6b817e7e7"}]}, {"status": 0, "message": "ok", "results": [{"name": "盱眙", "location": {"lat": 33.018255, "lng": 118.551444}, "uid": "4a3f640b740e4c06213bf2e9"}]}, {"status": 0, "message": "ok", "results": [{"name": "扬州", "location": {"lat": 32.400676, "lng": 119.419423}, "uid": "9e133d19c0cfce470f0a70e7"}]}, {"status": 0, "message": "ok", "results": [{"name": "镇江", "location": {"lat": 32.194717, "lng": 119.43049}, "uid": "dbb3f15e7d51c145364aaee7"}]}, {"status": 0, "message": "ok", "results": [{"name": "苏州", "location": {"lat": 31.303565, "lng": 120.592412}, "uid": "40ca934b3252e3a58a36eee7"}]}]