[{"status": 0, "message": "ok", "results": [{"name": "建平", "location": {"lat": 41.409454, "lng": 119.64938}, "uid": "672d03f21eab69ac1b94c6e4"}]}, {"status": 0, "message": "ok", "results": [{"name": "朝阳", "location": {"lat": 41.579822, "lng": 120.457496}, "uid": "93480ce51cae2b60b21e36e7"}]}, {"status": 0, "message": "ok", "results": [{"name": "宁城", "location": {"lat": 41.600247, "lng": 119.350613}, "uid": "f82d886bd2a493b92b06cee8"}]}, {"status": 0, "message": "ok", "results": [{"name": "滦平", "location": {"lat": 40.947561, "lng": 117.339495}, "uid": "7952c814a23ff2527bf796ef"}]}, {"status": 0, "message": "ok", "results": [{"name": "北京", "location": {"lat": 39.910924, "lng": 116.413387}, "uid": "1f062db5bf2e12b5b04c49e6"}]}, {"status": 0, "message": "ok", "results": [{"name": "河间", "location": {"lat": 38.451355, "lng": 116.105628}, "uid": "ca6c31f8df6f7773a8175ae8"}]}, {"status": 0, "message": "ok", "results": [{"name": "深州", "location": {"lat": 38.006941, "lng": 115.566366}, "uid": "004a15765c12d31fc6effbeb"}]}, {"status": 0, "message": "ok", "results": [{"name": "永年", "location": {"lat": 36.747569, "lng": 114.550625}, "uid": "43bb550a91be585132870aef"}]}, {"status": 0, "message": "ok", "results": [{"name": "安阳", "location": {"lat": 36.10594, "lng": 114.399503}, "uid": "db14e096b51b7a184107c1e7"}]}, {"status": 0, "message": "ok", "results": [{"name": "开封", "location": {"lat": 34.802885, "lng": 114.314595}, "uid": "a71bc211e1d36cf6ee74f8e7"}]}, {"status": 0, "message": "ok", "results": [{"name": "临汝", "location": {"lat": 34.26471, "lng": 112.610147}, "address": "平顶山市汝州市", "province": "河南省", "city": "平顶山市", "area": "汝州市", "detail": 1, "uid": "4eb3b533cd68e17542024582"}, {"name": "临汝镇上三张小学", "location": {"lat": 34.282355, "lng": 112.658605}, "address": "河南省平顶山市汝州市临汝镇狮子张村", "province": "河南省", "city": "平顶山市", "area": "汝州市", "detail": 1, "uid": "c56bb60659bea6852d4733e0"}, {"name": "刘家皮鞋临汝店", "location": {"lat": 34.266018, "lng": 112.608857}, "address": "临汝镇车站隔壁", "province": "河南省", "city": "平顶山市", "area": "汝州市", "telephone": "15837534007", "detail": 1, "uid": "db8b2c6525b30523fe0eb062"}, {"name": "老临汝烧烤", "location": {"lat": 34.164309, "lng": 112.838769}, "address": "河南省平顶山市汝州市西环路", "province": "河南省", "city": "平顶山市", "area": "汝州市", "detail": 1, "uid": "29a44e861434ca8e38221cbb"}, {"name": "栗子园(临汝店)", "location": {"lat": 34.265896, "lng": 112.608866}, "address": "238省道附近", "province": "河南省", "city": "平顶山市", "area": "汝州市", "detail": 1, "uid": "d42cb9b7ec7b81643617dcd1"}, {"name": "临汝大小孩童装", "location": {"lat": 34.265448, "lng": 112.611749}, "address": "河南省平顶山市汝州市S238", "province": "河南省", "city": "平顶山市", "area": "汝州市", "telephone": "15637598235", "detail": 1, "uid": "d108cf5471f5529d04026f4c"}, {"name": "九阳临汝专卖店", "location": {"lat": 34.266287, "lng": 112.609589}, "address": "临汝镇车站街89号附近", "province": "河南省", "city": "平顶山市", "area": "汝州市", "detail": 1, "uid": "40316c8ba06211808c1a8941"}, {"name": "世纪隆购物广场(临汝店)", "location": {"lat": 34.266287, "lng": 112.609589}, "address": "临汝镇车站对面", "province": "河南省", "city": "平顶山市", "area": "汝州市", "detail": 1, "uid": "dbc203bd085a6a9ff7e73b03"}, {"name": "临汝七星手机卖场", "location": {"lat": 34.265919, "lng": 112.609248}, "address": "临汝镇商业街", "province": "河南省", "city": "平顶山市", "area": "汝州市", "detail": 1, "uid": "0f329ce992a36637744ff174"}, {"name": "临汝镇临东电子磅", "location": {"lat": 34.26732, "lng": 112.618807}, "address": "平顶山市汝州市238省道附近", "province": "河南省", "city": "平顶山市", "area": "汝州市", "detail": 1, "uid": "1a6497d13cb888d5f02d83d6"}]}, {"status": 0, "message": "ok", "results": [{"name": "高邮", "location": {"lat": 32.787148, "lng": 119.465614}, "uid": "6af0d4bbde1f0ace71210bee"}]}, {"status": 0, "message": "ok", "results": [{"name": "六合", "location": {"lat": 32.328667, "lng": 118.827476}, "uid": "b2a13ded88813cb717c8f6e9"}]}, {"status": 0, "message": "ok", "results": [{"name": "彭泽", "location": {"lat": 29.902121, "lng": 116.555508}, "uid": "a880fc00209a4f4bb05c6ae9"}]}, {"status": 0, "message": "ok", "results": [{"name": "铅山", "location": {"lat": 28.321504, "lng": 117.716424}, "uid": "95f38f4d9f3c50008c55ecec"}]}, {"status": 0, "message": "ok", "results": [{"name": "高安", "location": {"lat": 28.422858, "lng": 115.382564}, "uid": "b9d47c31abceb3b596ca07eb"}]}, {"status": 0, "message": "ok", "results": [{"name": "新干", "location": {"lat": 27.746081, "lng": 115.393595}, "uid": "05d3d1fe0e4b738514b54bef"}]}]