[{"status": 0, "message": "ok", "results": [{"name": "西安", "location": {"lat": 34.347269, "lng": 108.946465}, "uid": "6004101013367be6b817e7e7"}]}, {"status": 0, "message": "ok", "results": [{"name": "华阴", "location": {"lat": 34.571801, "lng": 110.098605}, "uid": "59143023ffd171b4e50738e9"}]}, {"status": 0, "message": "ok", "results": [{"name": "荥阳", "location": {"lat": 34.793811, "lng": 113.389421}, "uid": "89d1491c4c1e9a9b3ce231ee"}]}, {"status": 0, "message": "ok", "results": [{"name": "开封", "location": {"lat": 34.802885, "lng": 114.314595}, "uid": "a71bc211e1d36cf6ee74f8e7"}]}, {"status": 0, "message": "ok", "results": [{"name": "郾城", "location": {"lat": 33.593417, "lng": 114.013393}, "uid": "94309b42ae0a139ece06a4c6"}]}, {"status": 0, "message": "ok", "results": [{"name": "襄城", "location": {"lat": 33.857913, "lng": 113.513424}, "uid": "1ce285ca48093743343a71ef"}]}, {"status": 0, "message": "ok", "results": [{"name": "临汝", "location": {"lat": 34.26471, "lng": 112.610147}, "address": "平顶山市汝州市", "province": "河南省", "city": "平顶山市", "area": "汝州市", "detail": 1, "uid": "4eb3b533cd68e17542024582"}, {"name": "临汝镇上三张小学", "location": {"lat": 34.282355, "lng": 112.658605}, "address": "河南省平顶山市汝州市临汝镇狮子张村", "province": "河南省", "city": "平顶山市", "area": "汝州市", "detail": 1, "uid": "c56bb60659bea6852d4733e0"}, {"name": "刘家皮鞋", "location": {"lat": 34.266018, "lng": 112.608857}, "address": "临汝镇车站隔壁", "province": "河南省", "city": "平顶山市", "area": "汝州市", "telephone": "15837534007", "detail": 1, "uid": "db8b2c6525b30523fe0eb062"}, {"name": "老临汝烧烤", "location": {"lat": 34.164309, "lng": 112.838769}, "address": "河南省平顶山市汝州市西环路", "province": "河南省", "city": "平顶山市", "area": "汝州市", "detail": 1, "uid": "29a44e861434ca8e38221cbb"}, {"name": "栗子园(临汝店)", "location": {"lat": 34.265896, "lng": 112.608866}, "address": "238省道附近", "province": "河南省", "city": "平顶山市", "area": "汝州市", "detail": 1, "uid": "d42cb9b7ec7b81643617dcd1"}, {"name": "临汝大小孩童装", "location": {"lat": 34.265448, "lng": 112.611749}, "address": "河南省平顶山市汝州市S238", "province": "河南省", "city": "平顶山市", "area": "汝州市", "telephone": "15637598235", "detail": 1, "uid": "d108cf5471f5529d04026f4c"}, {"name": "九阳临汝专卖店", "location": {"lat": 34.266287, "lng": 112.609589}, "address": "临汝镇车站街89号附近", "province": "河南省", "city": "平顶山市", "area": "汝州市", "detail": 1, "uid": "40316c8ba06211808c1a8941"}, {"name": "世纪隆购物广场(临汝店)", "location": {"lat": 34.266287, "lng": 112.609589}, "address": "临汝镇车站对面", "province": "河南省", "city": "平顶山市", "area": "汝州市", "detail": 1, "uid": "dbc203bd085a6a9ff7e73b03"}, {"name": "临汝七星手机卖场", "location": {"lat": 34.265919, "lng": 112.609248}, "address": "临汝镇商业街", "province": "河南省", "city": "平顶山市", "area": "汝州市", "detail": 1, "uid": "0f329ce992a36637744ff174"}, {"name": "临汝镇临东电子磅", "location": {"lat": 34.26732, "lng": 112.618807}, "address": "平顶山市汝州市238省道附近", "province": "河南省", "city": "平顶山市", "area": "汝州市", "detail": 1, "uid": "1a6497d13cb888d5f02d83d6"}]}, {"status": 0, "message": "ok", "results": [{"name": "宜阳", "location": {"lat": 34.541048, "lng": 112.179467}, "uid": "70085baeefe223dd0b1cc7ee"}]}, {"status": 0, "message": "ok", "results": [{"name": "三门峡", "location": {"lat": 34.778326, "lng": 111.20653}, "uid": "0a25afbd5073da5ceb56fae7"}]}, {"status": 0, "message": "ok", "results": [{"name": "灵宝", "location": {"lat": 34.523144, "lng": 110.900406}, "uid": "62e42a2ffe531d422811d1eb"}]}, {"status": 0, "message": "ok", "results": [{"name": "潼关", "location": {"lat": 34.550326, "lng": 110.252512}, "uid": "40c2934b3252e3a58a36eeef"}]}, {"status": 0, "message": "ok", "results": [{"name": "西安", "location": {"lat": 34.347269, "lng": 108.946465}, "uid": "6004101013367be6b817e7e7"}]}]