[{"status": 0, "message": "ok", "results": [{"name": "蓝田", "location": {"lat": 34.15762, "lng": 109.329386}, "uid": "e3fa659fc90588150c0e6bee"}]}, {"status": 0, "message": "ok", "results": [{"name": "汨罗", "location": {"lat": 28.812455, "lng": 113.073496}, "uid": "e8af76759f05a5aabfa822ee"}]}, {"status": 0, "message": "ok", "results": [{"name": "蓝山", "location": {"lat": 25.375935, "lng": 112.203434}, "uid": "cae17a2a63e9afa5fbdc85ed"}]}, {"status": 0, "message": "ok", "results": [{"name": "连州", "location": {"lat": 24.786468, "lng": 112.383571}, "uid": "b124a4bcce4c4917b13c81ee"}]}, {"status": 0, "message": "ok", "results": [{"name": "阳山", "location": {"lat": 24.470944, "lng": 112.64752}, "address": "广东省清远市", "province": "广东省", "city": "清远市", "area": "阳山县", "detail": 0, "uid": "4af7b76ff35285eb841541ea"}, {"name": "阳山大道", "location": {"lat": 24.477986, "lng": 112.651305}, "address": "广东省清远市阳山县", "province": "广东省", "city": "清远市", "area": "阳山县", "detail": 0, "uid": "a1b35cf5384596412eb908c6"}, {"name": "阳山大道北", "location": {"lat": 24.487156, "lng": 112.652708}, "address": "广东省清远市阳山县", "province": "广东省", "city": "清远市", "area": "阳山县", "detail": 0, "uid": "c2ee9b9a74fd59214e3a59d2"}, {"name": "文塔路/阳山大桥(路口)", "location": {"lat": 24.481714, "lng": 112.651853}, "address": "清远市阳山县阳山大道北", "province": "广东省", "city": "清远市", "area": "阳山县", "street_id": "4fbc9d1f517c564c0869d92d", "detail": 1, "uid": "4fbc9d1f517c564c0869d92d"}, {"name": "教育路/阳山大道(路口)", "location": {"lat": 24.475362, "lng": 112.65082}, "address": "清远市阳山县阳山大道", "province": "广东省", "city": "清远市", "area": "阳山县", "street_id": "0404e4ff66abbb299122e085", "detail": 1, "uid": "0404e4ff66abbb299122e085"}, {"name": "与狼共舞(阳山大道北)", "location": {"lat": 24.482293, "lng": 112.651624}, "address": "阳城大街26号137", "province": "广东省", "city": "清远市", "area": "阳山县", "detail": 1, "uid": "33913190851557429868b45f"}, {"name": "贤令山", "location": {"lat": 24.489638, "lng": 112.652937}, "address": "广东省清远市阳山县陵园路16号", "province": "广东省", "city": "清远市", "area": "阳山县", "street_id": "0ed20a152092739757bfff66", "detail": 1, "uid": "0ed20a152092739757bfff66"}, {"name": "城南大道中/阳山大道(路口)", "location": {"lat": 24.478177, "lng": 112.65131}, "address": "广东省清远市阳山县", "province": "广东省", "city": "清远市", "area": "阳山县", "street_id": "b703e96b636cd6fb8f1a8954", "detail": 1, "uid": "b703e96b636cd6fb8f1a8954"}, {"name": "聚汇", "location": {"lat": 24.481558, "lng": 112.652218}, "address": "阳城镇文塔路345号翠贤湾三楼", "province": "广东省", "city": "清远市", "area": "阳山县", "street_id": "2029ded72a21c60426e0a085", "telephone": "(0763)7818118", "detail": 1, "uid": "2029ded72a21c60426e0a085"}, {"name": "阳山楼", "location": {"lat": 23.725025, "lng": 113.085967}, "address": "环校路东200米", "province": "广东省", "city": "清远市", "area": "清城区", "detail": 1, "uid": "1a9a8999d688ca3001294f53"}]}, {"status": 0, "message": "ok", "results": [{"name": "郴州", "location": {"lat": 25.776683, "lng": 113.021458}, "uid": "59d0bad4f7fadd4ea5da39e7"}]}, {"status": 0, "message": "ok", "results": [{"name": "耒阳", "location": {"lat": 26.428066, "lng": 112.866599}, "uid": "2feb091b1cd504ab471a32eb"}]}, {"status": 0, "message": "ok", "results": [{"name": "衡阳", "location": {"lat": 26.899575, "lng": 112.578449}, "uid": "27f50140b45bfb1ff90cade7"}]}, {"status": 0, "message": "ok", "results": [{"name": "长沙", "location": {"lat": 28.23489, "lng": 112.94547}, "uid": "e1ffc20644453215c356ace7"}]}, {"status": 0, "message": "ok", "results": [{"name": "岳阳", "location": {"lat": 29.363177, "lng": 113.135488}, "uid": "4a39640b740e4c06213bf2e7"}]}, {"status": 0, "message": "ok", "results": [{"name": "江陵", "location": {"lat": 30.048043, "lng": 112.43145}, "uid": "c53250076cf31073276e98e9"}]}, {"status": 0, "message": "ok", "results": [{"name": "邓州", "location": {"lat": 32.693918, "lng": 112.093418}, "uid": "91d88de7681fc6473904b1e9"}]}, {"status": 0, "message": "ok", "results": [{"name": "西安", "location": {"lat": 34.347269, "lng": 108.946465}, "uid": "6004101013367be6b817e7e7"}]}]