[{ "status": 0, "message": "ok", "results": [{ "name": "九江", "location": { "lat": 29.71134, "lng": 116.007533 }, "uid": "2afff4088a3d3ac08bdb73e7" }] }, { "status": 0, "message": "ok", "results": [{ "name": "开封", "location": { "lat": 34.802885, "lng": 114.314595 }, "uid": "a71bc211e1d36cf6ee74f8e7" }] }, { "status": 0, "message": "ok", "results": [{ "name": "常州", "location": { "lat": 31.815796, "lng": 119.981484 }, "uid": "a3390d0cb10d0c73028972e7" }] }, { "status": 0, "message": "ok", "results": [{ "name": "潢川", "location": { "lat": 32.137531, "lng": 115.058473 }, "uid": "cdef31e17526799f49fd3fee" }] }, { "status": 0, "message": "ok", "results": [{ "name": "应山", "location": { "lat": 31.622113, "lng": 113.841162 }, "address": "广水市", "province": "湖北省", "city": "随州市", "area": "广水市", "detail": 1, "uid": "f4694568f3fd9eb20f3ddaad" }, { "name": "应山府", "location": { "lat": 31.601212, "lng": 113.849048 }, "address": "湖北省随州市广水市迎宾大道1号", "province": "湖北省", "city": "随州市", "area": "广水市", "detail": 1, "uid": "31bbc792932eaf658936eec2" }, { "name": "广水市应山街道办事处", "location": { "lat": 31.622113, "lng": 113.841162 }, "address": "随州市广水市广安路12号", "province": "湖北省", "city": "随州市", "area": "广水市", "telephone": "(0722)6232493", "detail": 1, "uid": "691d8f8a2302c2a2c51e5193" }, { "name": "应山大道", "location": { "lat": 31.581301, "lng": 113.860975 }, "address": "湖北省随州市广水市", "province": "湖北省", "city": "随州市", "area": "广水市", "detail": 0, "uid": "b7c53f779f05a5aabea82246" }, { "name": "城南草莓园", "location": { "lat": 31.592535, "lng": 113.818984 }, "address": "湖北省随州市广水市S210", "province": "湖北省", "city": "随州市", "area": "广水市", "telephone": "13774144811", "detail": 1, "uid": "fccf2b3b80db443e83a00c4a" }, { "name": "广水市应山工商局", "location": { "lat": 31.620257, "lng": 113.843635 }, "address": "永阳大道5", "province": "湖北省", "city": "随州市", "area": "广水市", "telephone": "(0722)6232315", "detail": 1, "uid": "521891b50b00a14730169b76" }, { "name": "应山大道辅路", "location": { "lat": 31.60131, "lng": 113.851386 }, "address": "湖北省随州市广水市", "province": "湖北省", "city": "随州市", "area": "广水市", "detail": 0, "uid": "3762f7573370194b9ce32146" }, { "name": "应山剧院", "location": { "lat": 31.621374, "lng": 113.833882 }, "address": "东正街15", "province": "湖北省", "city": "随州市", "area": "广水市", "detail": 1, "uid": "7524cb4f2217853704026f4c" }, { "name": "应山房管所", "location": { "lat": 31.630955, "lng": 113.835255 }, "address": "广安路51号", "province": "湖北省", "city": "随州市", "area": "广水市", "telephone": "(0722)6233200", "detail": 1, "uid": "0861ae30a3138695ebe582f0" }, { "name": "应山湾", "location": { "lat": 31.657816, "lng": 113.56148 }, "address": "随州市广水市", "province": "湖北省", "city": "随州市", "area": "广水市", "detail": 1, "uid": "bf29b7028fb8b99908b93aa0" }] }, { "status": 0, "message": "ok", "results": [{ "name": "江陵", "location": { "lat": 30.048043, "lng": 112.43145 }, "uid": "c53250076cf31073276e98e9" }] }, { "status": 0, "message": "ok", "results": [{ "name": "开封", "location": { "lat": 34.802885, "lng": 114.314595 }, "uid": "a71bc211e1d36cf6ee74f8e7" }] }, { "status": 0, "message": "ok", "results": [{ "name": "安陆", "location": { "lat": 31.261414, "lng": 113.695582 }, "uid": "e37070d98bb717f04d776eef" }] }, { "status": 0, "message": "ok", "results": [{ "name": "应山", "location": { "lat": 31.622113, "lng": 113.841162 }, "address": "广水市", "province": "湖北省", "city": "随州市", "area": "广水市", "detail": 1, "uid": "f4694568f3fd9eb20f3ddaad" }, { "name": "应山府", "location": { "lat": 31.601212, "lng": 113.849048 }, "address": "湖北省随州市广水市迎宾大道1号", "province": "湖北省", "city": "随州市", "area": "广水市", "detail": 1, "uid": "31bbc792932eaf658936eec2" }, { "name": "广水市应山街道办事处", "location": { "lat": 31.622113, "lng": 113.841162 }, "address": "随州市广水市广安路12号", "province": "湖北省", "city": "随州市", "area": "广水市", "telephone": "(0722)6232493", "detail": 1, "uid": "691d8f8a2302c2a2c51e5193" }, { "name": "应山大道", "location": { "lat": 31.581301, "lng": 113.860975 }, "address": "湖北省随州市广水市", "province": "湖北省", "city": "随州市", "area": "广水市", "detail": 0, "uid": "b7c53f779f05a5aabea82246" }, { "name": "城南草莓园", "location": { "lat": 31.592535, "lng": 113.818984 }, "address": "湖北省随州市广水市S210", "province": "湖北省", "city": "随州市", "area": "广水市", "telephone": "13774144811", "detail": 1, "uid": "fccf2b3b80db443e83a00c4a" }, { "name": "广水市应山工商局", "location": { "lat": 31.620257, "lng": 113.843635 }, "address": "永阳大道5", "province": "湖北省", "city": "随州市", "area": "广水市", "telephone": "(0722)6232315", "detail": 1, "uid": "521891b50b00a14730169b76" }, { "name": "应山大道辅路", "location": { "lat": 31.60131, "lng": 113.851386 }, "address": "湖北省随州市广水市", "province": "湖北省", "city": "随州市", "area": "广水市", "detail": 0, "uid": "3762f7573370194b9ce32146" }, { "name": "应山剧院", "location": { "lat": 31.621374, "lng": 113.833882 }, "address": "东正街15", "province": "湖北省", "city": "随州市", "area": "广水市", "detail": 1, "uid": "7524cb4f2217853704026f4c" }, { "name": "应山房管所", "location": { "lat": 31.630955, "lng": 113.835255 }, "address": "广安路51号", "province": "湖北省", "city": "随州市", "area": "广水市", "telephone": "(0722)6233200", "detail": 1, "uid": "0861ae30a3138695ebe582f0" }, { "name": "应山湾", "location": { "lat": 31.657816, "lng": 113.56148 }, "address": "随州市广水市", "province": "湖北省", "city": "随州市", "area": "广水市", "detail": 1, "uid": "bf29b7028fb8b99908b93aa0" }] }, { "status": 0, "message": "ok", "results": [{ "name": "安陆", "location": { "lat": 31.261414, "lng": 113.695582 }, "uid": "e37070d98bb717f04d776eef" }] }, { "status": 0, "message": "ok", "results": [{ "name": "开封", "location": { "lat": 34.802885, "lng": 114.314595 }, "uid": "a71bc211e1d36cf6ee74f8e7" }] }, { "status": 0, "message": "ok", "results": [{ "name": "湖北", "location": { "lat": 30.5516, "lng": 114.348443 }, "uid": "cff7ff80e310f2aacb213de6" }] }, { "status": 0, "message": "ok", "results": [{ "name": "开封", "location": { "lat": 34.802885, "lng": 114.314595 }, "uid": "a71bc211e1d36cf6ee74f8e7" }] }, { "status": 0, "message": "ok", "results": [{ "name": "襄阳", "location": { "lat": 32.014797, "lng": 112.128533 }, "uid": "514a79d8cd6e54eaaaf0cd0d" }] }, { "status": 0, "message": "ok", "results": [{ "name": "开封", "location": { "lat": 34.802885, "lng": 114.314595 }, "uid": "a71bc211e1d36cf6ee74f8e7" }] }, { "status": 0, "message": "ok", "results": [{ "name": "北京", "location": { "lat": 39.910924, "lng": 116.413387 }, "uid": "1f062db5bf2e12b5b04c49e6" }] }, { "status": 0, "message": "ok", "results": [{ "name": "开封", "location": { "lat": 34.802885, "lng": 114.314595 }, "uid": "a71bc211e1d36cf6ee74f8e7" }] }, { "status": 0, "message": "ok", "results": [{ "name": "扬州", "location": { "lat": 32.400676, "lng": 119.419423 }, "uid": "9e133d19c0cfce470f0a70e7" }] }, { "status": 0, "message": "ok", "results": [{ "name": "东平", "location": { "lat": 35.941908, "lng": 116.477598 }, "uid": "52fe61027b19e457eaf853ec" }] }, { "status": 0, "message": "ok", "results": [{ "name": "开封", "location": { "lat": 34.802885, "lng": 114.314595 }, "uid": "a71bc211e1d36cf6ee74f8e7" }] }, { "status": 0, "message": "ok", "results": [{ "name": "郑州", "location": { "lat": 34.75344, "lng": 113.631416 }, "uid": "9665f01efc56794e0482c2e7" }] }, { "status": 0, "message": "ok", "results": [{ "name": "荥阳", "location": { "lat": 34.793811, "lng": 113.389421 }, "uid": "89d1491c4c1e9a9b3ce231ee" }] }, { "status": 0, "message": "ok", "results": [{ "name": "洛阳", "location": { "lat": 34.624264, "lng": 112.459424 }, "uid": "3e23636a35284eacd618b7e7" }] }, { "status": 0, "message": "ok", "results": [{ "name": "开封", "location": { "lat": 34.802885, "lng": 114.314595 }, "uid": "a71bc211e1d36cf6ee74f8e7" }] }, { "status": 0, "message": "ok", "results": [{ "name": "洛阳", "location": { "lat": 34.624264, "lng": 112.459424 }, "uid": "3e23636a35284eacd618b7e7" }] }, { "status": 0, "message": "ok", "results": [{ "name": "许昌", "location": { "lat": 34.041433, "lng": 113.858472 }, "uid": "91de8de7681fc6473904b1e7" }] }, { "status": 0, "message": "ok", "results": [{ "name": "洛阳", "location": { "lat": 34.624264, "lng": 112.459424 }, "uid": "3e23636a35284eacd618b7e7" }] }, { "status": 0, "message": "ok", "results": [{ "name": "许昌", "location": { "lat": 34.041433, "lng": 113.858472 }, "uid": "91de8de7681fc6473904b1e7" }] }, { "status": 0, "message": "ok", "results": [{ "name": "开封", "location": { "lat": 34.802885, "lng": 114.314595 }, "uid": "a71bc211e1d36cf6ee74f8e7" }] }, { "status": 0, "message": "ok", "results": [{ "name": "孟州", "location": { "lat": 34.913598, "lng": 112.797393 }, "uid": "d0f3cf38bc8eb39235b06cef" }] }, { "status": 0, "message": "ok", "results": [{ "name": "开封", "location": { "lat": 34.802885, "lng": 114.314595 }, "uid": "a71bc211e1d36cf6ee74f8e7" }] }, { "status": 0, "message": "ok", "results": [{ "name": "郑州", "location": { "lat": 34.75344, "lng": 113.631416 }, "uid": "9665f01efc56794e0482c2e7" }] }, { "status": 0, "message": "ok", "results": [{ "name": "安阳", "location": { "lat": 36.10594, "lng": 114.399503 }, "uid": "db14e096b51b7a184107c1e7" }] }, { "status": 0, "message": "ok", "results": [{ "name": "开封", "location": { "lat": 34.802885, "lng": 114.314595 }, "uid": "a71bc211e1d36cf6ee74f8e7" }] }]