[{ "status": 0, "message": "ok", "results": [{ "name": "江陵", "location": { "lat": 30.048043, "lng": 112.43145 }, "uid": "c53250076cf31073276e98e9" }] }, { "status": 0, "message": "ok", "results": [{ "name": "开封", "location": { "lat": 34.802885, "lng": 114.314595 }, "uid": "a71bc211e1d36cf6ee74f8e7" }] }, { "status": 0, "message": "ok", "results": [{ "name": "安陆", "location": { "lat": 31.261414, "lng": 113.695582 }, "uid": "e37070d98bb717f04d776eef" }] }, { "status": 0, "message": "ok", "results": [{ "name": "应山", "location": { "lat": 31.622113, "lng": 113.841162 }, "address": "广水市", "province": "湖北省", "city": "随州市", "area": "广水市", "detail": 1, "uid": "f4694568f3fd9eb20f3ddaad" }, { "name": "应山府", "location": { "lat": 31.601212, "lng": 113.849048 }, "address": "湖北省随州市广水市迎宾大道1号", "province": "湖北省", "city": "随州市", "area": "广水市", "detail": 1, "uid": "31bbc792932eaf658936eec2" }, { "name": "广水市应山街道办事处", "location": { "lat": 31.622113, "lng": 113.841162 }, "address": "随州市广水市广安路12号", "province": "湖北省", "city": "随州市", "area": "广水市", "telephone": "(0722)6232493", "detail": 1, "uid": "691d8f8a2302c2a2c51e5193" }, { "name": "应山大道", "location": { "lat": 31.581301, "lng": 113.860975 }, "address": "湖北省随州市广水市", "province": "湖北省", "city": "随州市", "area": "广水市", "detail": 0, "uid": "b7c53f779f05a5aabea82246" }, { "name": "城南草莓园", "location": { "lat": 31.592535, "lng": 113.818984 }, "address": "湖北省随州市广水市S210", "province": "湖北省", "city": "随州市", "area": "广水市", "telephone": "13774144811", "detail": 1, "uid": "fccf2b3b80db443e83a00c4a" }, { "name": "广水市应山工商局", "location": { "lat": 31.620257, "lng": 113.843635 }, "address": "永阳大道5", "province": "湖北省", "city": "随州市", "area": "广水市", "telephone": "(0722)6232315", "detail": 1, "uid": "521891b50b00a14730169b76" }, { "name": "应山大道辅路", "location": { "lat": 31.60131, "lng": 113.851386 }, "address": "湖北省随州市广水市", "province": "湖北省", "city": "随州市", "area": "广水市", "detail": 0, "uid": "3762f7573370194b9ce32146" }, { "name": "应山剧院", "location": { "lat": 31.621374, "lng": 113.833882 }, "address": "东正街15", "province": "湖北省", "city": "随州市", "area": "广水市", "detail": 1, "uid": "7524cb4f2217853704026f4c" }, { "name": "应山房管所", "location": { "lat": 31.630955, "lng": 113.835255 }, "address": "广安路51号", "province": "湖北省", "city": "随州市", "area": "广水市", "telephone": "(0722)6233200", "detail": 1, "uid": "0861ae30a3138695ebe582f0" }, { "name": "应山湾", "location": { "lat": 31.657816, "lng": 113.56148 }, "address": "随州市广水市", "province": "湖北省", "city": "随州市", "area": "广水市", "detail": 1, "uid": "bf29b7028fb8b99908b93aa0" }] }, { "status": 0, "message": "ok", "results": [{ "name": "安陆", "location": { "lat": 31.261414, "lng": 113.695582 }, "uid": "e37070d98bb717f04d776eef" }] }, { "status": 0, "message": "ok", "results": [{ "name": "开封", "location": { "lat": 34.802885, "lng": 114.314595 }, "uid": "a71bc211e1d36cf6ee74f8e7" }] }]