[{"status": 0, "message": "ok", "results": [{"name": "扬州", "location": {"lat": 32.400676, "lng": 119.419423}, "uid": "9e133d19c0cfce470f0a70e7"}]}, {"status": 0, "message": "ok", "results": [{"name": "泰州", "location": {"lat": 32.460675, "lng": 119.929571}, "uid": "d427b2ff5b009d930ab93ae7"}]}, {"status": 0, "message": "ok", "results": [{"name": "扬州", "location": {"lat": 32.400676, "lng": 119.419423}, "uid": "9e133d19c0cfce470f0a70e7"}]}, {"status": 0, "message": "ok", "results": [{"name": "淮安", "location": {"lat": 33.616295, "lng": 119.021483}, "uid": "e0a7020e884d0b59b020a8e7"}]}, {"status": 0, "message": "ok", "results": [{"name": "涟水", "location": {"lat": 33.787078, "lng": 119.266451}, "uid": "7908c49874fd59214f3a59ef"}]}, {"status": 0, "message": "ok", "results": [{"name": "连云港", "location": {"lat": 34.602249, "lng": 119.228623}, "uid": "1cea85ca48093743343a71e7"}]}, {"status": 0, "message": "ok", "results": [{"name": "赣榆", "location": {"lat": 34.847682, "lng": 119.179432}, "uid": "a0da0fe88714679d54bfffe9"}]}, {"status": 0, "message": "ok", "results": [{"name": "诸城", "location": {"lat": 36.002011, "lng": 119.416405}, "uid": "3e029a6af13d905e72455bee"}]}, {"status": 0, "message": "ok", "results": [{"name": "密州街", "location": {"lat": 35.972171, "lng": 119.521187}, "address": "潍坊市诸城市", "province": "山东省", "city": "潍坊市", "area": "诸城市", "detail": 1, "uid": "ac8c55879951ff51a2d230c8"}, {"name": "密州商城", "location": {"lat": 35.999299, "lng": 119.407843}, "address": "人民东路2号", "province": "山东省", "city": "潍坊市", "area": "诸城市", "street_id": "07f3c8b591d3c51e6340a9a0", "telephone": "(0536)6211528", "detail": 1, "uid": "07f3c8b591d3c51e6340a9a0"}, {"name": "密州西路", "location": {"lat": 36.01458, "lng": 119.395592}, "address": "山东省潍坊市诸城市", "province": "山东省", "city": "潍坊市", "area": "诸城市", "detail": 0, "uid": "da412e3c56e2c864f5eafcd3"}, {"name": "密州古玩城", "location": {"lat": 36.008882, "lng": 119.408864}, "address": "山东省潍坊市诸城市繁荣西路惠丰装饰城(九龙商城南)", "province": "山东省", "city": "潍坊市", "area": "诸城市", "street_id": "f6ff4cd9ab28caca45e274db", "detail": 1, "uid": "f6ff4cd9ab28caca45e274db"}, {"name": "密州西路辅路", "location": {"lat": 36.01465, "lng": 119.4023}, "address": "山东省潍坊市诸城市", "province": "山东省", "city": "潍坊市", "area": "诸城市", "detail": 0, "uid": "05122b0548045569f33cba94"}, {"name": "密州宾馆", "location": {"lat": 36.00102, "lng": 119.41595}, "address": "山东省潍坊市诸城市府前街1号", "province": "山东省", "city": "潍坊市", "area": "诸城市", "street_id": "69fcd6dfdf4e3a2eca291511", "telephone": "(0536)6567127", "detail": 1, "uid": "69fcd6dfdf4e3a2eca291511"}, {"name": "密州街道办事处", "location": {"lat": 35.972774, "lng": 119.520971}, "address": "山东省潍坊市诸城市凤凰路7601", "province": "山东省", "city": "潍坊市", "area": "诸城市", "detail": 1, "uid": "75036835509b76d25f0d02a3"}, {"name": "密州菜馆", "location": {"lat": 36.014356, "lng": 119.420001}, "address": "密州路37号(原汉唐酒店西面小院)", "province": "山东省", "city": "潍坊市", "area": "诸城市", "street_id": "120748aeccaf9e93bbdf8f73", "telephone": "(0536)6321188", "detail": 1, "uid": "1541d63d736906f562685861"}, {"name": "密州东路", "location": {"lat": 36.014939, "lng": 119.436406}, "address": "山东省潍坊市诸城市", "province": "山东省", "city": "潍坊市", "area": "诸城市", "detail": 0, "uid": "7e3f9069b33af18a08a8d426"}, {"name": "诸城市密州卫生院", "location": {"lat": 35.981211, "lng": 119.519397}, "address": "潍坊市诸城市永安路30号", "province": "山东省", "city": "潍坊市", "area": "诸城市", "detail": 1, "uid": "f2372d4c35605ff0f4b916d2"}]}, {"status": 0, "message": "ok", "results": [{"name": "胶州", "location": {"lat": 36.270347, "lng": 120.039532}, "uid": "1f0c2db5bf2e12b5b04c49ec"}]}, {"status": 0, "message": "ok", "results": [{"name": "蓬莱", "location": {"lat": 37.816439, "lng": 120.765561}, "uid": "4af4b76ff35285eb841541eb"}]}, {"status": 0, "message": "ok", "results": [{"name": "莱州", "location": {"lat": 37.182637, "lng": 119.948597}, "uid": "d34efa2b94fb88054bcc4aee"}]}, {"status": 0, "message": "ok", "results": [{"name": "潍坊市益都中心医", "location": {"lat": 36.683048, "lng": 118.47899}, "address": "山东省潍坊市青州市玲珑山南路4138号", "province": "山东省", "city": "潍坊市", "area": "青州市", "street_id": "925c550f02fb8dcf5b3ac899", "telephone": "(0536)3277731", "detail": 1, "uid": "925c550f02fb8dcf5b3ac899"}, {"name": "益都街道", "location": {"lat": 36.703853, "lng": 118.477611}, "address": "潍坊市青州市尧王山西路", "province": "山东省", "city": "潍坊市", "area": "青州市", "street_id": "2c5ca32ffc501d7a59bbbcff", "detail": 1, "uid": "2c5ca32ffc501d7a59bbbcff"}, {"name": "益都街道办", "location": {"lat": 36.778139, "lng": 118.444121}, "address": "山东省潍坊市青州市东高村", "province": "山东省", "city": "潍坊市", "area": "青州市", "detail": 1, "uid": "b703e96b7860fd878f1a895c"}, {"name": "益都东路", "location": {"lat": 36.726538, "lng": 118.526534}, "address": "山东省潍坊市青州市", "province": "山东省", "city": "潍坊市", "area": "青州市", "detail": 0, "uid": "dfc07f13290410696e3e1b34"}, {"name": "益都西路", "location": {"lat": 36.737859, "lng": 118.481173}, "address": "山东省潍坊市青州市", "province": "山东省", "city": "潍坊市", "area": "青州市", "detail": 0, "uid": "d156330396275777c06c1434"}, {"name": "益都街道", "location": {"lat": 36.778224, "lng": 118.440962}, "address": "青州市", "province": "山东省", "city": "潍坊市", "area": "青州市", "detail": 1, "uid": "77409d995ad3cfd49222e098"}, {"name": "益都街道龙山路卫生所", "location": {"lat": 36.709221, "lng": 118.488992}, "address": "潍坊市青州市龙山路4号", "province": "山东省", "city": "潍坊市", "area": "青州市", "street_id": "ee9d9f458645a2bd932ca39e", "detail": 1, "uid": "ee9d9f458645a2bd932ca39e"}, {"name": "益都实业开发", "location": {"lat": 36.72954, "lng": 118.481709}, "address": "明祖山西路619号附近", "province": "山东省", "city": "潍坊市", "area": "青州市", "street_id": "7195a9168e32f08381a12ef2", "detail": 1, "uid": "7195a9168e32f08381a12ef2"}, {"name": "益都造纸机械厂", "location": {"lat": 36.70732, "lng": 118.518547}, "address": "昭德北路西150米", "province": "山东省", "city": "潍坊市", "area": "青州市", "street_id": "9f5e70da86404751047ce8af", "detail": 1, "uid": "9f5e70da86404751047ce8af"}, {"name": "益都卫生院", "location": {"lat": 36.776044, "lng": 118.440423}, "address": "青州16路", "province": "山东省", "city": "潍坊市", "area": "青州市", "detail": 0, "uid": "39ca21e90b0a6e94f33cba45"}]}, {"status": 0, "message": "ok", "results": [{"name": "章丘", "location": {"lat": 36.685533, "lng": 117.532568}, "uid": "c2bedced29ebc3955ebe8648"}]}, {"status": 0, "message": "ok", "results": [{"name": "济南", "location": {"lat": 36.656554, "lng": 117.126399}, "uid": "e6ebd545d2c73bb682a12ee7"}]}, {"status": 0, "message": "ok", "results": [{"name": "长清", "location": {"lat": 36.560216, "lng": 116.758391}, "uid": "3e28636a35284eacd618b7ec"}]}, {"status": 0, "message": "ok", "results": [{"name": "东平", "location": {"lat": 35.941908, "lng": 116.477598}, "uid": "52fe61027b19e457eaf853ec"}]}, {"status": 0, "message": "ok", "results": [{"name": "商丘", "location": {"lat": 34.420202, "lng": 115.662449}, "uid": "8399702dc8e2ee51fe0eb0e7"}]}]