[{"status": 0, "message": "ok", "results": [{"name": "睢县", "location": {"lat": 34.451616, "lng": 115.078406}, "uid": "2b54aae7a59333554251c0ee"}]}, {"status": 0, "message": "ok", "results": [{"name": "临汝", "location": {"lat": 34.26471, "lng": 112.610147}, "address": "平顶山市汝州市", "province": "河南省", "city": "平顶山市", "area": "汝州市", "detail": 1, "uid": "4eb3b533cd68e17542024582"}, {"name": "临汝镇上三张小学", "location": {"lat": 34.282355, "lng": 112.658605}, "address": "河南省平顶山市汝州市临汝镇狮子张村", "province": "河南省", "city": "平顶山市", "area": "汝州市", "detail": 1, "uid": "c56bb60659bea6852d4733e0"}, {"name": "刘家皮鞋临汝店", "location": {"lat": 34.266018, "lng": 112.608857}, "address": "临汝镇车站隔壁", "province": "河南省", "city": "平顶山市", "area": "汝州市", "telephone": "15837534007", "detail": 1, "uid": "db8b2c6525b30523fe0eb062"}, {"name": "老临汝烧烤", "location": {"lat": 34.164309, "lng": 112.838769}, "address": "河南省平顶山市汝州市西环路", "province": "河南省", "city": "平顶山市", "area": "汝州市", "detail": 1, "uid": "29a44e861434ca8e38221cbb"}, {"name": "栗子园(临汝店)", "location": {"lat": 34.265896, "lng": 112.608866}, "address": "238省道附近", "province": "河南省", "city": "平顶山市", "area": "汝州市", "detail": 1, "uid": "d42cb9b7ec7b81643617dcd1"}, {"name": "临汝大小孩童装", "location": {"lat": 34.265448, "lng": 112.611749}, "address": "河南省平顶山市汝州市S238", "province": "河南省", "city": "平顶山市", "area": "汝州市", "telephone": "15637598235", "detail": 1, "uid": "d108cf5471f5529d04026f4c"}, {"name": "九阳临汝专卖店", "location": {"lat": 34.266287, "lng": 112.609589}, "address": "临汝镇车站街89号附近", "province": "河南省", "city": "平顶山市", "area": "汝州市", "detail": 1, "uid": "40316c8ba06211808c1a8941"}, {"name": "世纪隆购物广场(临汝店)", "location": {"lat": 34.266287, "lng": 112.609589}, "address": "临汝镇车站对面", "province": "河南省", "city": "平顶山市", "area": "汝州市", "detail": 1, "uid": "dbc203bd085a6a9ff7e73b03"}, {"name": "临汝七星手机卖场", "location": {"lat": 34.265919, "lng": 112.609248}, "address": "临汝镇商业街", "province": "河南省", "city": "平顶山市", "area": "汝州市", "detail": 1, "uid": "0f329ce992a36637744ff174"}, {"name": "临汝镇临东电子磅", "location": {"lat": 34.26732, "lng": 112.618807}, "address": "平顶山市汝州市238省道附近", "province": "河南省", "city": "平顶山市", "area": "汝州市", "detail": 1, "uid": "1a6497d13cb888d5f02d83d6"}]}, {"status": 0, "message": "ok", "results": [{"name": "开封", "location": {"lat": 34.802885, "lng": 114.314595}, "uid": "a71bc211e1d36cf6ee74f8e7"}]}, {"status": 0, "message": "ok", "results": [{"name": "杞县", "location": {"lat": 34.554857, "lng": 114.789592}, "uid": "f9484d1640a0a7beacee7aef"}]}, {"status": 0, "message": "ok", "results": [{"name": "宁陵", "location": {"lat": 34.466634, "lng": 115.320419}, "uid": "db1fe096b51b7a184107c1ec"}]}, {"status": 0, "message": "ok", "results": [{"name": "商丘", "location": {"lat": 34.420202, "lng": 115.662449}, "uid": "8399702dc8e2ee51fe0eb0e7"}]}, {"status": 0, "message": "ok", "results": [{"name": "宿州", "location": {"lat": 33.652096, "lng": 116.970543}, "uid": "894470f3819df2b3616858e7"}]}, {"status": 0, "message": "ok", "results": [{"name": "盱眙", "location": {"lat": 33.018255, "lng": 118.551444}, "uid": "4a3f640b740e4c06213bf2e9"}]}, {"status": 0, "message": "ok", "results": [{"name": "淮安", "location": {"lat": 33.616295, "lng": 119.021483}, "uid": "e0a7020e884d0b59b020a8e7"}]}, {"status": 0, "message": "ok", "results": [{"name": "高邮", "location": {"lat": 32.787148, "lng": 119.465614}, "uid": "6af0d4bbde1f0ace71210bee"}]}, {"status": 0, "message": "ok", "results": [{"name": "扬州", "location": {"lat": 32.400676, "lng": 119.419423}, "uid": "9e133d19c0cfce470f0a70e7"}]}, {"status": 0, "message": "ok", "results": [{"name": "镇江", "location": {"lat": 32.194717, "lng": 119.43049}, "uid": "dbb3f15e7d51c145364aaee7"}]}, {"status": 0, "message": "ok", "results": [{"name": "仪征", "location": {"lat": 32.278091, "lng": 119.191469}, "uid": "51ee89470b488f6fa7c756ef"}]}, {"status": 0, "message": "ok", "results": [{"name": "六合", "location": {"lat": 32.328667, "lng": 118.827476}, "uid": "b2a13ded88813cb717c8f6e9"}]}, {"status": 0, "message": "ok", "results": [{"name": "南京", "location": {"lat": 32.064652, "lng": 118.802422}, "uid": "73d80fbb9cf7cc6a1d1d11e7"}]}, {"status": 0, "message": "ok", "results": [{"name": "当涂", "location": {"lat": 31.576649, "lng": 118.504607}, "uid": "91d48de7681fc6473904b1ed"}]}, {"status": 0, "message": "ok", "results": [{"name": "彭泽", "location": {"lat": 29.902121, "lng": 116.555508}, "uid": "a880fc00209a4f4bb05c6ae9"}]}, {"status": 0, "message": "ok", "results": [{"name": "湖口", "location": {"lat": 29.737131, "lng": 116.258474}, "uid": "2910bba98d112471ca1b95ef"}]}, {"status": 0, "message": "ok", "results": [{"name": "九江", "location": {"lat": 29.71134, "lng": 116.007533}, "uid": "2afff4088a3d3ac08bdb73e7"}]}, {"status": 0, "message": "ok", "results": [{"name": "都昌", "location": {"lat": 29.278966, "lng": 116.21055}, "uid": "06007d40100f17f0601809eb"}]}, {"status": 0, "message": "ok", "results": [{"name": "南昌", "location": {"lat": 28.689455, "lng": 115.864585}, "uid": "dbfdcd488d1788696140a9e7"}]}, {"status": 0, "message": "ok", "results": [{"name": "南昌", "location": {"lat": 28.689455, "lng": 115.864585}, "uid": "dbfdcd488d1788696140a9e7"}]}, {"status": 0, "message": "ok", "results": [{"name": "吉安", "location": {"lat": 27.119727, "lng": 115.000514}, "uid": "4bd2e61f8d65c36b83a00ce7"}]}, {"status": 0, "message": "ok", "results": [{"name": "万安", "location": {"lat": 26.464073, "lng": 114.792575}, "uid": "47f52f2e6c3b0e5e08ccdde9"}]}, {"status": 0, "message": "ok", "results": [{"name": "赣州", "location": {"lat": 25.835176, "lng": 114.940508}, "uid": "8ced9745462a194bb8bd63e7"}]}, {"status": 0, "message": "ok", "results": [{"name": "上犹", "location": {"lat": 25.790518, "lng": 114.558548}, "uid": "f47bf3f75515957843afe6ef"}]}, {"status": 0, "message": "ok", "results": [{"name": "大余", "location": {"lat": 25.407637, "lng": 114.368404}, "uid": "8ab24e4d09219f8eae0457e9"}]}, {"status": 0, "message": "ok", "results": [{"name": "南雄", "location": {"lat": 25.123527, "lng": 114.318575}, "uid": "41a046a03a128501167643ea"}]}, {"status": 0, "message": "ok", "results": [{"name": "始兴", "location": {"lat": 24.958558, "lng": 114.068567}, "uid": "4bd5e61f8d65c36b83a00ce8"}]}, {"status": 0, "message": "ok", "results": [{"name": "韶关", "location": {"lat": 24.81588, "lng": 113.603524}, "uid": "1c443834fe0574244d5547e6"}]}, {"status": 0, "message": "ok", "results": [{"name": "英德", "location": {"lat": 24.19194, "lng": 113.421446}, "uid": "607f2011290410696f3e1bec"}]}, {"status": 0, "message": "ok", "results": [{"name": "清远", "location": {"lat": 23.688229, "lng": 113.062465}, "uid": "fe2e73bb321db961ddee8be7"}]}, {"status": 0, "message": "ok", "results": [{"name": "广州", "location": {"lat": 23.135336, "lng": 113.271429}, "uid": "f39897a115f7134fc2f1cfe7"}]}, {"status": 0, "message": "ok", "results": [{"name": "博罗", "location": {"lat": 23.178806, "lng": 114.296575}, "uid": "1be86df2f7fb2fddbadf8fee"}]}]