[{"status": 0, "message": "ok", "results": [{"name": "西安市", "location": {"lat": 34.347269, "lng": 108.946465}, "uid": "6004101013367be6b817e7e7"}]}, {"status": 0, "message": "ok", "results": [{"name": "富县", "location": {"lat": 35.993367, "lng": 109.386599}, "uid": "4606a2382e18d696f8f0cbe9"}]}, {"status": 0, "message": "ok", "results": [{"name": "西安市", "location": {"lat": 34.347269, "lng": 108.946465}, "uid": "6004101013367be6b817e7e7"}]}, {"status": 0, "message": "ok", "results": [{"name": "凤翔县", "location": {"lat": 34.527616, "lng": 107.40738}, "uid": "4a41842be5f1bd4cf603b8ec"}]}, {"status": 0, "message": "ok", "results": [{"name": "彬州市", "location": {"lat": 35.049611, "lng": 108.084568}, "uid": "672803f21eab69ac1b94c6e9"}]}, {"status": 0, "message": "ok", "results": [{"name": "唐玉华宫风景名胜区", "location": {"lat": 35.330142, "lng": 108.920788}, "address": "陕西省铜川市印台区玉华公路附近", "province": "陕西省", "city": "铜川市", "area": "宜君县", "street_id": "d6ee8724f46480e3a8f0cdec", "telephone": "(0919)7586001", "detail": 1, "uid": "d6ee8724f46480e3a8f0cdec"}, {"name": "玉华宫-停车场", "location": {"lat": 35.349406, "lng": 108.957594}, "address": "305省道", "province": "陕西省", "city": "铜川市", "area": "宜君县", "detail": 1, "uid": "c765b02b4cb8d8e9764ff1b3"}, {"name": "玉华宫风景区售票处", "location": {"lat": 35.332178, "lng": 108.908018}, "address": "陕西省铜川市印台区金锁关镇玉华宫风景区附近", "province": "陕西省", "city": "铜川市", "area": "印台区", "detail": 1, "uid": "b577b30832d56aa64afd3f13"}, {"name": "玉华宫酒店", "location": {"lat": 35.334186, "lng": 108.911124}, "address": "陕西省铜川市印台区玉华宫景区玉华宫酒店", "province": "陕西省", "city": "铜川市", "area": "印台区", "telephone": "(0919)7762288", "detail": 1, "uid": "06db3d07f430b28830169bea"}, {"name": "玉华宫风景区-西门", "location": {"lat": 35.332032, "lng": 108.907818}, "address": "玉华宫风景区西", "province": "陕西省", "city": "铜川市", "area": "印台区", "detail": 1, "uid": "170cf7760f4be6b26fc02c18"}, {"name": "玉华宫风景区-南门", "location": {"lat": 35.338803, "lng": 108.938966}, "address": "陕西省铜川市宜君县玉华宫风景区南", "province": "陕西省", "city": "铜川市", "area": "宜君县", "detail": 1, "uid": "d61797c41f85415588fc066b"}, {"name": "玉华宫管理局", "location": {"lat": 35.341038, "lng": 108.937489}, "address": "玉华宫景区内", "province": "陕西省", "city": "铜川市", "area": "宜君县", "detail": 1, "uid": "18c158e14e5241c52b201aa9"}, {"name": "铜川市玉华宫管理局", "location": {"lat": 34.903008, "lng": 108.951567}, "address": "正阳路9", "province": "陕西省", "city": "铜川市", "area": "耀州区", "street_id": "ffd6d40395cb9ff117b54b66", "detail": 1, "uid": "ffd6d40395cb9ff117b54b66"}, {"name": "玉华宫立交", "location": {"lat": 35.362985, "lng": 108.98178}, "address": "陕西省铜川市宜君县", "province": "陕西省", "city": "铜川市", "area": "宜君县", "detail": 0, "uid": "037fcf29e5f1bd4cf603b8b4"}, {"name": "玉华宫酒店-桌球室", "location": {"lat": 35.334185, "lng": 108.911124}, "address": "陕西省铜川市印台区玉华宫酒店(玉华宫风景区西)", "province": "陕西省", "city": "铜川市", "area": "印台区", "telephone": "(0919)7762288", "detail": 1, "uid": "fd66dad660a193ba5bbbbc9c"}]}, {"status": 0, "message": "ok", "results": [{"name": "富县", "location": {"lat": 35.993367, "lng": 109.386599}, "uid": "4606a2382e18d696f8f0cbe9"}]}]