[{"status": 0, "message": "ok", "results": [{"name": "蓝田", "location": {"lat": 34.15762, "lng": 109.329386}, "uid": "e3fa659fc90588150c0e6bee"}]}, {"status": 0, "message": "ok", "results": [{"name": "华州", "location": {"lat": 34.518731, "lng": 109.778476}, "uid": "b66cf1e98714679d55bfff37"}]}, {"status": 0, "message": "ok", "results": [{"name": "故县", "location": {"lat": 36.831576, "lng": 112.929874}, "address": "山西省长治市武乡县故县乡政府(城东街北)", "province": "山西省", "city": "长治市", "area": "武乡县", "detail": 1, "uid": "81d6a5098bd50f416f20b9b1"}, {"name": "故县镇", "location": {"lat": 36.603066, "lng": 112.632572}, "address": "山西省长治市沁县故县镇委(段宜线东)", "province": "山西省", "city": "长治市", "area": "沁县", "telephone": "(0355)7187063", "detail": 1, "uid": "efcc7140c5776fee36b06cd7"}, {"name": "故县村", "location": {"lat": 36.36448, "lng": 113.044677}, "address": "长治市潞州区", "province": "山西省", "city": "长治市", "area": "潞州区", "detail": 1, "uid": "46e86fdd41d92d6ed03ce3bc"}, {"name": "故县村", "location": {"lat": 36.654485, "lng": 113.039998}, "address": "山西省长治市襄垣县", "province": "山西省", "city": "长治市", "area": "襄垣县", "detail": 1, "uid": "39cef52a7df2ecc1eb12e42d"}, {"name": "故县村", "location": {"lat": 36.322819, "lng": 112.782023}, "address": "山西省长治市屯留区", "province": "山西省", "city": "长治市", "area": "屯留区", "detail": 1, "uid": "2ac9b118bb36b7b00b1cc744"}, {"name": "西故县村", "location": {"lat": 36.072652, "lng": 113.135842}, "address": "长治市上党区", "province": "山西省", "city": "长治市", "area": "上党区", "detail": 1, "uid": "c5ddcc0818b42dc7d913188c"}, {"name": "故县派出所", "location": {"lat": 36.370978, "lng": 113.054876}, "address": "激情百度KTV东50米(文明路西)", "province": "山西省", "city": "长治市", "area": "潞州区", "telephone": "(0355)5087253", "detail": 1, "uid": "8d96925cd714d244c0f1cf85"}, {"name": "故县街道", "location": {"lat": 36.369976, "lng": 113.054892}, "address": "长治市潞州区市场路", "province": "山西省", "city": "长治市", "area": "潞州区", "detail": 1, "uid": "2e1a7e0edeba28373a13fd25"}, {"name": "故县街道办事处", "location": {"lat": 36.370057, "lng": 113.054815}, "address": "长治市潞州区故县北市街", "province": "山西省", "city": "长治市", "area": "潞州区", "detail": 1, "uid": "e74eccd9c3f198a216a1905e"}, {"name": "故县汽车站", "location": {"lat": 36.368951, "lng": 113.050535}, "address": "山西省长治市潞州区长钢西街87号", "province": "山西省", "city": "长治市", "area": "潞州区", "detail": 1, "uid": "606ab0d0d9e9f12b0f3dda85"}]}, {"status": 0, "message": "ok", "results": [{"name": "灵宝", "location": {"lat": 34.523144, "lng": 110.900406}, "uid": "62e42a2ffe531d422811d1eb"}]}, {"status": 0, "message": "ok", "results": [{"name": "鄠邑", "location": {"lat": 34.11502, "lng": 108.611424}, "uid": "9a32e51295be8a4e2db17e31"}]}, {"status": 0, "message": "ok", "results": [{"name": "西安", "location": {"lat": 34.347269, "lng": 108.946465}, "uid": "6004101013367be6b817e7e7"}]}, {"status": 0, "message": "ok", "results": [{"name": "华州", "location": {"lat": 34.518731, "lng": 109.778476}, "uid": "b66cf1e98714679d55bfff37"}]}]