[{"status": 0, "message": "ok", "results": [{"name": "朔州市朔城区国土", "location": {"lat": 39.336531, "lng": 112.428233}, "address": "市府西街38号", "province": "山西省", "city": "朔州市", "area": "朔城区", "street_id": "f4a33da9e6ddc0083110afb6", "telephone": "(0349)2038615", "detail": 1, "uid": "f4a33da9e6ddc0083110afb6"}, {"name": "朔城经济开发区", "location": {"lat": 39.356929, "lng": 112.493086}, "address": "朔州市招贤路", "province": "山西省", "city": "朔州市", "area": "朔城区", "detail": 1, "uid": "b73969309a0cd5850482c218"}, {"name": "朔城交通", "location": {"lat": 39.32485, "lng": 112.435425}, "address": "鄯阳街14号附近", "province": "山西省", "city": "朔州市", "area": "朔城区", "street_id": "5b1de3722b6b620a82288ab8", "detail": 1, "uid": "5b1de3722b6b620a82288ab8"}, {"name": "朔城宾馆", "location": {"lat": 39.327154, "lng": 112.438465}, "address": "朔州市朔城区鄯阳街137号城区政府后院", "province": "山西省", "city": "朔州市", "area": "朔城区", "street_id": "764672e5c3f92bac95ec84b6", "telephone": "(0349)2229999", "detail": 1, "uid": "764672e5c3f92bac95ec84b6"}, {"name": "朔城珠宝", "location": {"lat": 39.32563, "lng": 112.433631}, "address": "朔州市朔城区鄯阳路金城商厦1层", "province": "山西省", "city": "朔州市", "area": "朔城区", "street_id": "667a895ad6edf77e0aa8d49b", "detail": 1, "uid": "667a895ad6edf77e0aa8d49b"}, {"name": "朔城经济开发区", "location": {"lat": 39.354869, "lng": 112.464197}, "address": "山西省朔州市朔城区振华东街51东80米", "province": "山西省", "city": "朔州市", "area": "朔城区", "detail": 1, "uid": "2e55ed0332d2f836a8f0cdcf"}, {"name": "朔城宾馆-停车场", "location": {"lat": 39.327172, "lng": 112.438166}, "address": "鄯阳街137号朔城宾馆", "province": "山西省", "city": "朔州市", "area": "朔城区", "street_id": "15ed53cebe98db299222e0d4", "detail": 1, "uid": "15ed53cebe98db299222e0d4"}, {"name": "朔城交警指挥中心", "location": {"lat": 39.325577, "lng": 112.400072}, "address": "鄯阳西街北50米", "province": "山西省", "city": "朔州市", "area": "朔城区", "street_id": "5495c17839a53f7632870a70", "detail": 1, "uid": "5495c17839a53f7632870a70"}, {"name": "朔州市朔城区公安局", "location": {"lat": 39.325489, "lng": 112.401917}, "address": "山西省朔州市朔城区南城街道馨园社区鄯阳西街公安局", "province": "山西省", "city": "朔州市", "area": "朔城区", "street_id": "ef725265215422d5f503b82b", "telephone": "(0349)2169216", "detail": 1, "uid": "ef725265215422d5f503b82b"}, {"name": "会计培训(朔城校区)", "location": {"lat": 39.352336, "lng": 112.4476}, "address": "朔城朔州市平朔北路市建筑总公司四楼主校区", "province": "山西省", "city": "朔州市", "area": "朔城区", "detail": 1, "uid": "ea2508286ca36b309d82eaef"}]}, {"status": 0, "message": "ok", "results": [{"name": "呼和浩特", "location": {"lat": 40.848422, "lng": 111.755512}, "uid": "3bd378a27af2be0bae080fe7"}]}, {"status": 0, "message": "ok", "results": [{"name": "五原", "location": {"lat": 41.094453, "lng": 108.273491}, "uid": "2afbf4088a3d3ac08bdb73eb"}]}, {"status": 0, "message": "ok", "results": [{"name": "蓬莱", "location": {"lat": 37.816439, "lng": 120.765561}, "uid": "4af4b76ff35285eb841541eb"}]}, {"status": 0, "message": "ok", "results": [{"name": "日照", "location": {"lat": 35.422839, "lng": 119.533418}, "uid": "010bdee2792cf934902ca3e7"}]}, {"status": 0, "message": "ok", "results": [{"name": "博兴", "location": {"lat": 37.160477, "lng": 118.117491}, "uid": "65f83e1c6219d2b193114cee"}]}, {"status": 0, "message": "ok", "results": [{"name": "淮安", "location": {"lat": 33.616295, "lng": 119.021483}, "uid": "e0a7020e884d0b59b020a8e7"}]}, {"status": 0, "message": "ok", "results": [{"name": "萧山", "location": {"lat": 30.187511, "lng": 120.270469}, "uid": "0bece73a741c43beeb1e97ec"}]}, {"status": 0, "message": "ok", "results": [{"name": "义乌", "location": {"lat": 29.31115, "lng": 120.081582}, "uid": "032e340450e300ad2dfaa7ef"}]}, {"status": 0, "message": "ok", "results": [{"name": "临海", "location": {"lat": 28.864049, "lng": 121.15159}, "uid": "e702d338996927a040ab9ae8"}]}, {"status": 0, "message": "ok", "results": [{"name": "桐庐", "location": {"lat": 29.798585, "lng": 119.697601}, "uid": "795dc814a23ff2527bf796e8"}]}, {"status": 0, "message": "ok", "results": [{"name": "西安", "location": {"lat": 34.347269, "lng": 108.946465}, "uid": "6004101013367be6b817e7e7"}]}, {"status": 0, "message": "ok", "results": [{"name": "扬州", "location": {"lat": 32.400676, "lng": 119.419423}, "uid": "9e133d19c0cfce470f0a70e7"}]}]