[{"status": 0, "message": "ok", "results": [{"name": "共和", "location": {"lat": 36.288703, "lng": 100.62662}, "uid": "4bd1e61f8d65c36b83a00ce4"}]}, {"status": 0, "message": "ok", "results": [{"name": "天山", "location": {"lat": 31.217225, "lng": 121.408702}, "address": "上海市长宁区", "province": "上海市", "city": "上海市", "area": "长宁区", "detail": 0, "uid": "89a240d8fee6635997f08cf7"}, {"name": "天山村", "location": {"lat": 31.219909, "lng": 121.391298}, "address": "上海市长宁区", "province": "上海市", "city": "上海市", "area": "长宁区", "street_id": "1dcb6e79063403e9a8f72936", "detail": 1, "uid": "1dcb6e79063403e9a8f72936"}, {"name": "天山西路", "location": {"lat": 31.202276, "lng": 121.295154}, "address": "上海市长宁区", "province": "上海市", "city": "上海市", "area": "", "detail": 0, "uid": "8a16bdd2266fb36677e5b6de"}, {"name": "天山三村-南2门", "location": {"lat": 31.219225, "lng": 121.413162}, "address": "上海市长宁区玉屏南路380弄120号-141号", "province": "上海市", "city": "上海市", "area": "长宁区", "street_id": "4d3e9cd18f758f475cd4fe6e", "detail": 1, "uid": "4d3e9cd18f758f475cd4fe6e"}, {"name": "天山五村", "location": {"lat": 31.216842, "lng": 121.404304}, "address": "茅台路353号,天山五村", "province": "上海市", "city": "上海市", "area": "长宁区", "street_id": "342a7fd1d5af0196871541b1", "detail": 1, "uid": "342a7fd1d5af0196871541b1"}, {"name": "天山河畔花园", "location": {"lat": 31.221612, "lng": 121.397702}, "address": "水城路883弄", "province": "上海市", "city": "上海市", "area": "长宁区", "street_id": "53349ee38f3c076f2202621c", "detail": 1, "uid": "53349ee38f3c076f2202621c"}, {"name": "天山路", "location": {"lat": 31.222252, "lng": 121.402549}, "address": "scip2号线", "province": "上海市", "city": "上海市", "area": "长宁区", "detail": 0, "uid": "a1fa3b3ff70e4a5017b54bd6"}, {"name": "天山路", "location": {"lat": 31.218657, "lng": 121.402737}, "address": "上海市长宁区天山路614号附近", "province": "上海市", "city": "上海市", "area": "长宁区", "detail": 1, "uid": "1c9b5c7174fc3e9d75e5b631"}, {"name": "天山河畔花园-东1门", "location": {"lat": 31.221568, "lng": 121.399072}, "address": "水城路883弄1-26号", "province": "上海市", "city": "上海市", "area": "长宁区", "street_id": "125402ec28d338d888f15de1", "detail": 1, "uid": "125402ec28d338d888f15de1"}, {"name": "双流路天山路(招呼站)", "location": {"lat": 31.220126, "lng": 121.387303}, "address": "311路", "province": "上海市", "city": "上海市", "area": "长宁区", "detail": 0, "uid": "975c12c7dfb3b81d4c6d4605"}]}, {"status": 0, "message": "ok", "results": [{"name": "奇台", "location": {"lat": 44.026897, "lng": 89.601079}, "uid": "4602a2382e18d696f8f0cbe5"}]}, {"status": 0, "message": "ok", "results": [{"name": "托克逊", "location": {"lat": 42.798546, "lng": 88.660167}, "uid": "c4ee6680b6f2d35bad31e5e5"}]}, {"status": 0, "message": "ok", "results": [{"name": "西安", "location": {"lat": 34.347269, "lng": 108.946465}, "uid": "6004101013367be6b817e7e7"}]}]