[{"status": 0, "message": "ok", "results": [{"name": "弋阳", "location": {"lat": 28.384082, "lng": 117.455503}, "uid": "cd14a60f5e1613f0b2077dee"}]}, {"status": 0, "message": "ok", "results": [{"name": "贵溪", "location": {"lat": 28.298734, "lng": 117.251399}, "uid": "1095e4ebfeac0b5f1c3894ed"}]}, {"status": 0, "message": "ok", "results": [{"name": "鄱阳", "location": {"lat": 29.011453, "lng": 116.710565}, "uid": "cae3050c8703c20b0a5cb3ed"}]}, {"status": 0, "message": "ok", "results": [{"name": "余干", "location": {"lat": 28.707867, "lng": 116.7016}, "uid": "5a32e65abdeb6544e01103ee"}]}, {"status": 0, "message": "ok", "results": [{"name": "吉水", "location": {"lat": 27.23526, "lng": 115.142572}, "uid": "60ffd7b30813c6ee9ff779ee"}]}, {"status": 0, "message": "ok", "results": [{"name": "高安", "location": {"lat": 28.422858, "lng": 115.382564}, "uid": "b9d47c31abceb3b596ca07eb"}]}, {"status": 0, "message": "ok", "results": [{"name": "南昌", "location": {"lat": 28.689455, "lng": 115.864585}, "uid": "dbfdcd488d1788696140a9e7"}]}, {"status": 0, "message": "ok", "results": [{"name": "南昌", "location": {"lat": 28.689455, "lng": 115.864585}, "uid": "dbfdcd488d1788696140a9e7"}]}, {"status": 0, "message": "ok", "results": [{"name": "玉山", "location": {"lat": 28.68775, "lng": 118.251563}, "uid": "3953e82b0c19ca50a2d230ec"}]}, {"status": 0, "message": "ok", "results": [{"name": "衢州", "location": {"lat": 28.975546, "lng": 118.866597}, "uid": "7a3d6597f02890440869d9e7"}]}, {"status": 0, "message": "ok", "results": [{"name": "龙游", "location": {"lat": 29.034487, "lng": 119.178417}, "uid": "60f0d7b30813c6ee9ff779e9"}]}, {"status": 0, "message": "ok", "results": [{"name": "杭州", "location": {"lat": 30.253082, "lng": 120.21551}, "uid": "99f429f6963d1f271fe999e7"}]}, {"status": 0, "message": "ok", "results": [{"name": "崇福", "location": {"lat": 30.534211, "lng": 120.452027}, "address": "浙江省嘉兴市桐乡市崇德东路", "province": "浙江省", "city": "嘉兴市", "area": "桐乡市", "detail": 1, "uid": "64265ab0e0af6c8681a12ebe"}, {"name": "崇福汽车站", "location": {"lat": 30.534264, "lng": 120.452342}, "address": "海宁330路;桐乡309路/k309路;桐乡k319路", "province": "浙江省", "city": "嘉兴市", "area": "桐乡市", "detail": 0, "uid": "c8e20a244f7fc97b17948eed"}, {"name": "中国崇福皮毛市场", "location": {"lat": 30.523748, "lng": 120.438557}, "address": "崇福镇工农路2", "province": "浙江省", "city": "嘉兴市", "area": "桐乡市", "detail": 1, "uid": "64ff3be1d40502ba90114cff"}, {"name": "崇福开发区", "location": {"lat": 30.541905, "lng": 120.461684}, "address": "桐乡k211路;桐乡k212路", "province": "浙江省", "city": "嘉兴市", "area": "桐乡市", "detail": 0, "uid": "0f60475f5c8629010f0a7086"}, {"name": "凤凰城", "location": {"lat": 30.532374, "lng": 120.428584}, "address": "嘉兴市桐乡市崇民大道1060号", "province": "浙江省", "city": "嘉兴市", "area": "桐乡市", "detail": 1, "uid": "e530eeaf48b348083586f469"}, {"name": "崇福派出所", "location": {"lat": 30.543043, "lng": 120.445583}, "address": "崇福镇民丰路2号", "province": "浙江省", "city": "嘉兴市", "area": "桐乡市", "telephone": "(0573)88222110", "detail": 1, "uid": "b388f9fd70879f40b35c6aff"}, {"name": "崇福站", "location": {"lat": 30.534883, "lng": 120.452402}, "address": "崇德东路2", "province": "浙江省", "city": "嘉兴市", "area": "桐乡市", "telephone": "(0573)88411690", "detail": 1, "uid": "bb1d38e49ad21e4c0c0a70ff"}, {"name": "崇福南门桥", "location": {"lat": 30.529128, "lng": 120.447962}, "address": "浙江省嘉兴市桐乡市崇福镇崇楼线(城东大楼)", "province": "浙江省", "city": "嘉兴市", "area": "桐乡市", "detail": 1, "uid": "67cbe5086831399372455b83"}, {"name": "崇福永安皮草行", "location": {"lat": 30.521333, "lng": 120.436629}, "address": "浙江省嘉兴市桐乡市崇福镇中国·崇福皮草大世界南150米", "province": "浙江省", "city": "嘉兴市", "area": "桐乡市", "telephone": "13833857834", "detail": 1, "uid": "5f4ebf350b1c887094031982"}, {"name": "崇福皮毛市场", "location": {"lat": 30.523824, "lng": 120.440348}, "address": "桐乡k330路", "province": "浙江省", "city": "嘉兴市", "area": "桐乡市", "detail": 0, "uid": "ba1be74688b91c191d580072"}]}, {"status": 0, "message": "ok", "results": [{"name": "松江", "location": {"lat": 31.037134, "lng": 121.234476}, "uid": "6008c0208cf08f16d4851fe9"}]}, {"status": 0, "message": "ok", "results": [{"name": "苏州", "location": {"lat": 31.303565, "lng": 120.592412}, "uid": "40ca934b3252e3a58a36eee7"}]}, {"status": 0, "message": "ok", "results": [{"name": "无锡", "location": {"lat": 31.49881, "lng": 120.318582}, "uid": "9e010f21a31a0b2bfb2213e7"}]}, {"status": 0, "message": "ok", "results": [{"name": "常州", "location": {"lat": 31.815796, "lng": 119.981484}, "uid": "a3390d0cb10d0c73028972e7"}]}, {"status": 0, "message": "ok", "results": [{"name": "丹阳", "location": {"lat": 32.01592, "lng": 119.612505}, "uid": "d7cb3a6e772eccf022f017eb"}]}, {"status": 0, "message": "ok", "results": [{"name": "扬州", "location": {"lat": 32.400676, "lng": 119.419423}, "uid": "9e133d19c0cfce470f0a70e7"}]}, {"status": 0, "message": "ok", "results": [{"name": "高邮", "location": {"lat": 32.787148, "lng": 119.465614}, "uid": "6af0d4bbde1f0ace71210bee"}]}]