[{"status": 0, "message": "ok", "results": [{"name": "吉水", "location": {"lat": 27.23526, "lng": 115.142572}, "uid": "60ffd7b30813c6ee9ff779ee"}]}, {"status": 0, "message": "ok", "results": [{"name": "安福", "location": {"lat": 27.399076, "lng": 114.626478}, "uid": "46096dc8a35f3ba55d0d02eb"}]}, {"status": 0, "message": "ok", "results": [{"name": "吉水", "location": {"lat": 27.23526, "lng": 115.142572}, "uid": "60ffd7b30813c6ee9ff779ee"}]}, {"status": 0, "message": "ok", "results": [{"name": "新干", "location": {"lat": 27.746081, "lng": 115.393595}, "uid": "05d3d1fe0e4b738514b54bef"}]}, {"status": 0, "message": "ok", "results": [{"name": "清江", "location": {"lat": 28.278388, "lng": 121.115708}, "address": "温州市乐清市区前路", "province": "浙江省", "city": "温州市", "area": "乐清市", "detail": 1, "uid": "bcaebff88848a957c8e33ca9"}, {"name": "清江", "location": {"lat": 28.276116, "lng": 121.115448}, "address": "乐清105路;乐清k105路;清江至清北双向循环线", "province": "浙江省", "city": "温州市", "area": "乐清市", "detail": 0, "uid": "7dcaac79cb6913aa04026f2b"}, {"name": "清江村", "location": {"lat": 27.628682, "lng": 120.375935}, "address": "温州市平阳县", "province": "浙江省", "city": "温州市", "area": "平阳县", "detail": 1, "uid": "c879fa014ff76b49c909f022"}, {"name": "清江工业区", "location": {"lat": 28.279444, "lng": 121.119933}, "address": "浙江省温州市乐清市乐青市G15西侧", "province": "浙江省", "city": "温州市", "area": "乐清市", "detail": 1, "uid": "09a6414d2a5a16fd364aae57"}, {"name": "清江中学", "location": {"lat": 28.277913, "lng": 121.11119}, "address": "温州市乐清市清江镇水产路8号", "province": "浙江省", "city": "温州市", "area": "乐清市", "detail": 1, "uid": "38e480372d5ffb4a373a7130"}, {"name": "清江路", "location": {"lat": 27.988932, "lng": 120.723397}, "address": "浙江省温州市", "province": "浙江省", "city": "温州市", "area": "", "detail": 0, "uid": "d088ee51ff003ccb5c17c344"}, {"name": "清江路", "location": {"lat": 27.589907, "lng": 120.57436}, "address": "浙江省温州市平阳县", "province": "浙江省", "city": "温州市", "area": "平阳县", "detail": 0, "uid": "b5aad1fd5b009d930bb93a6c"}, {"name": "清江村", "location": {"lat": 28.290092, "lng": 121.115375}, "address": "乐清105路;清江至清北双向循环线", "province": "浙江省", "city": "温州市", "area": "乐清市", "detail": 0, "uid": "157b3b8cfbcab4183062128f"}, {"name": "清江大桥", "location": {"lat": 28.279417, "lng": 121.123804}, "address": "浙江省温州市乐清市", "province": "浙江省", "city": "温州市", "area": "乐清市", "detail": 0, "uid": "a4afb6c935fbae831c58004f"}, {"name": "清江三鲜面", "location": {"lat": 28.044619, "lng": 120.903478}, "address": "浙江省温州市乐清市三里一路111号", "province": "浙江省", "city": "温州市", "area": "乐清市", "telephone": "13587787318", "detail": 1, "uid": "136c5e11bdbef749276e98df"}]}, {"status": 0, "message": "ok", "results": [{"name": "江西", "location": {"lat": 28.68169, "lng": 115.915421}, "uid": "a212bc189040548903ff2de6"}]}, {"status": 0, "message": "ok", "results": [{"name": "衢州", "location": {"lat": 28.975546, "lng": 118.866597}, "uid": "7a3d6597f02890440869d9e7"}]}, {"status": 0, "message": "ok", "results": [{"name": "浙江", "location": {"lat": 30.271549, "lng": 120.159537}, "uid": "6ee959d082e57f532e4733e6"}]}]