[{"status": 0, "message": "ok", "results": [{"name": "衡山", "location": {"lat": 27.235996, "lng": 112.875563}, "address": "湖南省衡阳市", "province": "湖南省", "city": "衡山县", "area": "衡山县", "detail": 0, "uid": "6f1259abad2e8a57f21937eb"}, {"name": "衡山西站", "location": {"lat": 27.253672, "lng": 112.796274}, "address": "衡阳市衡山县开云镇", "province": "湖南省", "city": "衡阳市", "area": "衡山县", "detail": 1, "uid": "839927515d1489be343a7148"}, {"name": "衡山路", "location": {"lat": 27.250767, "lng": 112.798182}, "address": "湖南省衡阳市", "province": "湖南省", "city": "衡山县", "area": "", "detail": 0, "uid": "decc2a3c56e2c864f5eafc46"}, {"name": "衡山大桥", "location": {"lat": 27.233208, "lng": 112.88797}, "address": "湖南省衡阳市", "province": "湖南省", "city": "衡山县", "area": "", "detail": 0, "uid": "982da0fea9cfa740cb09f05f"}, {"name": "衡山汽车站", "location": {"lat": 27.252333, "lng": 112.860158}, "address": "人民西路222号", "province": "湖南省", "city": "衡阳市", "area": "衡山县", "street_id": "4eb3b533f788db7543024522", "detail": 1, "uid": "4eb3b533f788db7543024522"}, {"name": "衡山县新桥镇", "location": {"lat": 27.375266, "lng": 112.536111}, "address": "湖南省衡阳市衡山县新桥镇政府(034县道西)", "province": "湖南省", "city": "衡阳市", "area": "衡山县", "detail": 1, "uid": "a3f21eee8183aa442fb17edf"}, {"name": "衡山大桥/解放北路(路口)", "location": {"lat": 27.240776, "lng": 112.881307}, "address": "衡阳市衡山县解放北路", "province": "湖南省", "city": "衡阳市", "area": "衡山县", "street_id": "07783af59b5cd3e4b320a896", "detail": 1, "uid": "07783af59b5cd3e4b320a896"}, {"name": "衡山县政府", "location": {"lat": 27.235902, "lng": 112.874879}, "address": "衡阳市衡山县交通街4栋101", "province": "湖南省", "city": "衡阳市", "area": "衡山县", "street_id": "0dc3d82d6a55936c75e5b623", "telephone": "(0734)5812451", "detail": 1, "uid": "0dc3d82d6a55936c75e5b623"}, {"name": "衡山神龙盈佳大酒店", "location": {"lat": 27.254787, "lng": 112.868447}, "address": "湖南省衡阳市衡山县衡山大道818号", "province": "湖南省", "city": "衡阳市", "area": "衡山县", "telephone": "(0734)2819999", "detail": 1, "uid": "3731e85a3f41bf6f15c90561"}, {"name": "衡山县人民医院", "location": {"lat": 27.238726, "lng": 112.876006}, "address": "衡阳市衡山县开云镇白石巷69号", "province": "湖南省", "city": "衡阳市", "area": "衡山县", "street_id": "b292b3aa5b9f9c56be484222", "detail": 1, "uid": "b292b3aa5b9f9c56be484222"}]}, {"status": 0, "message": "ok", "results": [{"name": "永州", "location": {"lat": 26.425864, "lng": 111.619454}, "uid": "7a9d322b4abe1ab9f42310e7"}]}, {"status": 0, "message": "ok", "results": [{"name": "长沙", "location": {"lat": 28.23489, "lng": 112.94547}, "uid": "e1ffc20644453215c356ace7"}]}, {"status": 0, "message": "ok", "results": [{"name": "零陵", "location": {"lat": 26.227682, "lng": 111.637501}, "uid": "3d4e4b3e56e2c864f5eafcc6"}]}, {"status": 0, "message": "ok", "results": [{"name": "安福", "location": {"lat": 27.399076, "lng": 114.626478}, "uid": "46096dc8a35f3ba55d0d02eb"}]}]