[{"status": 0, "message": "ok", "results": [{"name": "惠州", "location": {"lat": 23.116359, "lng": 114.42356}, "uid": "2186da0023e487e1d0ff23e7"}]}, {"status": 0, "message": "ok", "results": [{"name": "衡阳", "location": {"lat": 26.899575, "lng": 112.578449}, "uid": "27f50140b45bfb1ff90cade7"}]}, {"status": 0, "message": "ok", "results": [{"name": "临汝", "location": {"lat": 34.26471, "lng": 112.610147}, "address": "平顶山市汝州市", "province": "河南省", "city": "平顶山市", "area": "汝州市", "detail": 1, "uid": "4eb3b533cd68e17542024582"}, {"name": "临汝镇上三张小学", "location": {"lat": 34.282355, "lng": 112.658605}, "address": "河南省平顶山市汝州市临汝镇狮子张村", "province": "河南省", "city": "平顶山市", "area": "汝州市", "detail": 1, "uid": "c56bb60659bea6852d4733e0"}, {"name": "刘家皮鞋临汝店", "location": {"lat": 34.266018, "lng": 112.608857}, "address": "临汝镇车站隔壁", "province": "河南省", "city": "平顶山市", "area": "汝州市", "telephone": "15837534007", "detail": 1, "uid": "db8b2c6525b30523fe0eb062"}, {"name": "老临汝烧烤", "location": {"lat": 34.164309, "lng": 112.838769}, "address": "河南省平顶山市汝州市西环路", "province": "河南省", "city": "平顶山市", "area": "汝州市", "detail": 1, "uid": "29a44e861434ca8e38221cbb"}, {"name": "栗子园(临汝店)", "location": {"lat": 34.265896, "lng": 112.608866}, "address": "238省道附近", "province": "河南省", "city": "平顶山市", "area": "汝州市", "detail": 1, "uid": "d42cb9b7ec7b81643617dcd1"}, {"name": "临汝大小孩童装", "location": {"lat": 34.265448, "lng": 112.611749}, "address": "河南省平顶山市汝州市S238", "province": "河南省", "city": "平顶山市", "area": "汝州市", "telephone": "15637598235", "detail": 1, "uid": "d108cf5471f5529d04026f4c"}, {"name": "九阳临汝专卖店", "location": {"lat": 34.266287, "lng": 112.609589}, "address": "临汝镇车站街89号附近", "province": "河南省", "city": "平顶山市", "area": "汝州市", "detail": 1, "uid": "40316c8ba06211808c1a8941"}, {"name": "世纪隆购物广场(临汝店)", "location": {"lat": 34.266287, "lng": 112.609589}, "address": "临汝镇车站对面", "province": "河南省", "city": "平顶山市", "area": "汝州市", "detail": 1, "uid": "dbc203bd085a6a9ff7e73b03"}, {"name": "临汝七星手机卖场", "location": {"lat": 34.265919, "lng": 112.609248}, "address": "临汝镇商业街", "province": "河南省", "city": "平顶山市", "area": "汝州市", "detail": 1, "uid": "0f329ce992a36637744ff174"}, {"name": "临汝镇临东电子磅", "location": {"lat": 34.26732, "lng": 112.618807}, "address": "平顶山市汝州市238省道附近", "province": "河南省", "city": "平顶山市", "area": "汝州市", "detail": 1, "uid": "1a6497d13cb888d5f02d83d6"}]}, {"status": 0, "message": "ok", "results": [{"name": "洛阳", "location": {"lat": 34.624264, "lng": 112.459424}, "uid": "3e23636a35284eacd618b7e7"}]}, {"status": 0, "message": "ok", "results": [{"name": "西安", "location": {"lat": 34.347269, "lng": 108.946465}, "uid": "6004101013367be6b817e7e7"}]}]