[{"status": 0, "message": "ok", "results": [{"name": "\u957f\u6c99\u5e02", "location": {"lat": 28.23489, "lng": 112.94547}, "uid": "e1ffc20644453215c356ace7"}]}, {"status": 0, "message": "ok", "results": [{"name": "\u8861\u5c71\u53bf", "location": {"lat": 27.235996, "lng": 112.875563}, "address": "\u6e56\u5357\u7701\u8861\u9633\u5e02", "province": "\u6e56\u5357\u7701", "city": "\u8861\u5c71\u53bf", "area": "\u8861\u5c71\u53bf", "detail": 0, "uid": "6f1259abad2e8a57f21937eb"}, {"name": "\u8861\u5c71\u897f\u7ad9", "location": {"lat": 27.253672, "lng": 112.796274}, "address": "\u8861\u9633\u5e02\u8861\u5c71\u53bf\u5f00\u4e91\u9547", "province": "\u6e56\u5357\u7701", "city": "\u8861\u9633\u5e02", "area": "\u8861\u5c71\u53bf", "detail": 1, "uid": "839927515d1489be343a7148"}, {"name": "\u8861\u5c71\u8def", "location": {"lat": 27.250767, "lng": 112.798182}, "address": "\u6e56\u5357\u7701\u8861\u9633\u5e02", "province": "\u6e56\u5357\u7701", "city": "\u8861\u5c71\u53bf", "area": "", "detail": 0, "uid": "decc2a3c56e2c864f5eafc46"}, {"name": "\u8861\u5c71\u5927\u6865", "location": {"lat": 27.233176, "lng": 112.887889}, "address": "\u6e56\u5357\u7701\u8861\u9633\u5e02", "province": "\u6e56\u5357\u7701", "city": "\u8861\u5c71\u53bf", "area": "", "detail": 0, "uid": "982da0fea9cfa740cb09f05f"}, {"name": "\u8861\u5c71\u6c7d\u8f66\u7ad9", "location": {"lat": 27.252333, "lng": 112.860158}, "address": "\u4eba\u6c11\u897f\u8def222\u53f7", "province": "\u6e56\u5357\u7701", "city": "\u8861\u9633\u5e02", "area": "\u8861\u5c71\u53bf", "street_id": "4eb3b533f788db7543024522", "detail": 1, "uid": "4eb3b533f788db7543024522"}, {"name": "\u8861\u5c71\u53bf\u65b0\u6865\u9547", "location": {"lat": 27.375266, "lng": 112.536111}, "address": "\u6e56\u5357\u7701\u8861\u9633\u5e02\u8861\u5c71\u53bf\u65b0\u6865\u9547\u653f\u5e9c(034\u53bf\u9053\u897f)", "province": "\u6e56\u5357\u7701", "city": "\u8861\u9633\u5e02", "area": "\u8861\u5c71\u53bf", "detail": 1, "uid": "a3f21eee8183aa442fb17edf"}, {"name": "\u8861\u5c71\u5927\u6865/\u89e3\u653e\u5317\u8def(\u8def\u53e3)", "location": {"lat": 27.240776, "lng": 112.881307}, "address": "\u8861\u9633\u5e02\u8861\u5c71\u53bf\u89e3\u653e\u5317\u8def", "province": "\u6e56\u5357\u7701", "city": "\u8861\u9633\u5e02", "area": "\u8861\u5c71\u53bf", "street_id": "07783af59b5cd3e4b320a896", "detail": 1, "uid": "07783af59b5cd3e4b320a896"}, {"name": "\u8861\u5c71\u53bf\u653f\u5e9c", "location": {"lat": 27.235902, "lng": 112.874879}, "address": "\u8861\u9633\u5e02\u8861\u5c71\u53bf\u4ea4\u901a\u88574\u680b101", "province": "\u6e56\u5357\u7701", "city": "\u8861\u9633\u5e02", "area": "\u8861\u5c71\u53bf", "street_id": "0dc3d82d6a55936c75e5b623", "telephone": "(0734)5812451", "detail": 1, "uid": "0dc3d82d6a55936c75e5b623"}, {"name": "\u795e\u9f99\u76c8\u4f73\u5927\u9152\u5e97", "location": {"lat": 27.254787, "lng": 112.868447}, "address": "\u6e56\u5357\u7701\u8861\u9633\u5e02\u8861\u5c71\u53bf\u8861\u5c71\u5927\u9053818\u53f7", "province": "\u6e56\u5357\u7701", "city": "\u8861\u9633\u5e02", "area": "\u8861\u5c71\u53bf", "telephone": "(0734)2819999", "detail": 1, "uid": "3731e85a3f41bf6f15c90561"}, {"name": "\u8861\u5c71\u53bf\u4eba\u6c11\u533b\u9662", "location": {"lat": 27.238726, "lng": 112.876006}, "address": "\u8861\u9633\u5e02\u8861\u5c71\u53bf\u5f00\u4e91\u9547\u767d\u77f3\u5df769\u53f7", "province": "\u6e56\u5357\u7701", "city": "\u8861\u9633\u5e02", "area": "\u8861\u5c71\u53bf", "street_id": "b292b3aa5b9f9c56be484222", "detail": 1, "uid": "b292b3aa5b9f9c56be484222"}]}, {"status": 0, "message": "ok", "results": [{"name": "\u8012\u9633\u5e02", "location": {"lat": 26.428066, "lng": 112.866599}, "uid": "2feb091b1cd504ab471a32eb"}]}, {"status": 0, "message": "ok", "results": [{"name": "\u8861\u9633\u5e02", "location": {"lat": 26.899575, "lng": 112.578449}, "uid": "27f50140b45bfb1ff90cade7"}]}, {"status": 0, "message": "ok", "results": [{"name": "\u957f\u6c99\u5e02", "location": {"lat": 28.23489, "lng": 112.94547}, "uid": "e1ffc20644453215c356ace7"}]}]