[{"status": 0, "message": "ok", "results": [{"name": "\u84dd\u7530\u53bf", "location": {"lat": 34.15762, "lng": 109.329386}, "uid": "e3fa659fc90588150c0e6bee"}]}, {"status": 0, "message": "ok", "results": [{"name": "\u534e\u5dde\u533a", "location": {"lat": 34.518731, "lng": 109.778476}, "uid": "b66cf1e98714679d55bfff37"}]}, {"status": 0, "message": "ok", "results": [{"name": "\u6545\u53bf\u4e61", "location": {"lat": 36.831576, "lng": 112.929874}, "address": "\u5c71\u897f\u7701\u957f\u6cbb\u5e02\u6b66\u4e61\u53bf\u6545\u53bf\u4e61\u653f\u5e9c(\u57ce\u4e1c\u8857\u5317)", "province": "\u5c71\u897f\u7701", "city": "\u957f\u6cbb\u5e02", "area": "\u6b66\u4e61\u53bf", "detail": 1, "uid": "81d6a5098bd50f416f20b9b1"}, {"name": "\u6545\u53bf\u9547", "location": {"lat": 36.603066, "lng": 112.632572}, "address": "\u5c71\u897f\u7701\u957f\u6cbb\u5e02\u6c81\u53bf\u6545\u53bf\u9547\u59d4(\u6bb5\u5b9c\u7ebf\u4e1c)", "province": "\u5c71\u897f\u7701", "city": "\u957f\u6cbb\u5e02", "area": "\u6c81\u53bf", "telephone": "(0355)7187063", "detail": 1, "uid": "efcc7140c5776fee36b06cd7"}, {"name": "\u6545\u53bf\u6751", "location": {"lat": 36.36448, "lng": 113.044677}, "address": "\u957f\u6cbb\u5e02\u6f5e\u5dde\u533a", "province": "\u5c71\u897f\u7701", "city": "\u957f\u6cbb\u5e02", "area": "\u6f5e\u5dde\u533a", "detail": 1, "uid": "46e86fdd41d92d6ed03ce3bc"}, {"name": "\u6545\u53bf\u6751", "location": {"lat": 36.654485, "lng": 113.039998}, "address": "\u5c71\u897f\u7701\u957f\u6cbb\u5e02\u8944\u57a3\u53bf", "province": "\u5c71\u897f\u7701", "city": "\u957f\u6cbb\u5e02", "area": "\u8944\u57a3\u53bf", "detail": 1, "uid": "39cef52a7df2ecc1eb12e42d"}, {"name": "\u6545\u53bf\u6751", "location": {"lat": 36.322819, "lng": 112.782023}, "address": "\u5c71\u897f\u7701\u957f\u6cbb\u5e02\u5c6f\u7559\u533a", "province": "\u5c71\u897f\u7701", "city": "\u957f\u6cbb\u5e02", "area": "\u5c6f\u7559\u533a", "detail": 1, "uid": "2ac9b118bb36b7b00b1cc744"}, {"name": "\u897f\u6545\u53bf\u6751", "location": {"lat": 36.072652, "lng": 113.135842}, "address": "\u957f\u6cbb\u5e02\u4e0a\u515a\u533a", "province": "\u5c71\u897f\u7701", "city": "\u957f\u6cbb\u5e02", "area": "\u4e0a\u515a\u533a", "detail": 1, "uid": "c5ddcc0818b42dc7d913188c"}, {"name": "\u6545\u53bf\u6d3e\u51fa\u6240", "location": {"lat": 36.370978, "lng": 113.054876}, "address": "\u6fc0\u60c5\u767e\u5ea6KTV\u4e1c50\u7c73(\u6587\u660e\u8def\u897f)", "province": "\u5c71\u897f\u7701", "city": "\u957f\u6cbb\u5e02", "area": "\u6f5e\u5dde\u533a", "telephone": "(0355)5087253", "detail": 1, "uid": "8d96925cd714d244c0f1cf85"}, {"name": "\u6545\u53bf\u8857\u9053", "location": {"lat": 36.369976, "lng": 113.054892}, "address": "\u957f\u6cbb\u5e02\u6f5e\u5dde\u533a\u5e02\u573a\u8def", "province": "\u5c71\u897f\u7701", "city": "\u957f\u6cbb\u5e02", "area": "\u6f5e\u5dde\u533a", "detail": 1, "uid": "2e1a7e0edeba28373a13fd25"}, {"name": "\u6545\u53bf\u8857\u9053\u529e\u4e8b\u5904", "location": {"lat": 36.370057, "lng": 113.054815}, "address": "\u957f\u6cbb\u5e02\u6f5e\u5dde\u533a\u6545\u53bf\u5317\u5e02\u8857", "province": "\u5c71\u897f\u7701", "city": "\u957f\u6cbb\u5e02", "area": "\u6f5e\u5dde\u533a", "detail": 1, "uid": "e74eccd9c3f198a216a1905e"}, {"name": "\u6545\u53bf\u6c7d\u8f66\u7ad9", "location": {"lat": 36.368951, "lng": 113.050535}, "address": "\u5c71\u897f\u7701\u957f\u6cbb\u5e02\u6f5e\u5dde\u533a\u957f\u94a2\u897f\u885787\u53f7", "province": "\u5c71\u897f\u7701", "city": "\u957f\u6cbb\u5e02", "area": "\u6f5e\u5dde\u533a", "detail": 1, "uid": "606ab0d0d9e9f12b0f3dda85"}]}, {"status": 0, "message": "ok", "results": [{"name": "\u7075\u5b9d\u5e02", "location": {"lat": 34.523144, "lng": 110.900406}, "uid": "62e42a2ffe531d422811d1eb"}]}, {"status": 0, "message": "ok", "results": [{"name": "\u9120\u9091\u533a", "location": {"lat": 34.11502, "lng": 108.611424}, "uid": "9a32e51295be8a4e2db17e31"}]}, {"status": 0, "message": "ok", "results": [{"name": "\u897f\u5b89\u5e02", "location": {"lat": 34.347269, "lng": 108.946465}, "uid": "6004101013367be6b817e7e7"}]}, {"status": 0, "message": "ok", "results": [{"name": "\u534e\u5dde\u533a", "location": {"lat": 34.518731, "lng": 109.778476}, "uid": "b66cf1e98714679d55bfff37"}]}]