[{"status": 0, "message": "ok", "results": [{"name": "\u897f\u5b89\u5e02", "location": {"lat": 34.347269, "lng": 108.946465}, "uid": "6004101013367be6b817e7e7"}]}, {"status": 0, "message": "ok", "results": [{"name": "\u5bcc\u53bf", "location": {"lat": 35.993367, "lng": 109.386599}, "uid": "4606a2382e18d696f8f0cbe9"}]}, {"status": 0, "message": "ok", "results": [{"name": "\u897f\u5b89\u5e02", "location": {"lat": 34.347269, "lng": 108.946465}, "uid": "6004101013367be6b817e7e7"}]}, {"status": 0, "message": "ok", "results": [{"name": "\u51e4\u7fd4\u53bf", "location": {"lat": 34.527616, "lng": 107.40738}, "uid": "4a41842be5f1bd4cf603b8ec"}]}, {"status": 0, "message": "ok", "results": [{"name": "\u5f6c\u5dde\u5e02", "location": {"lat": 35.049611, "lng": 108.084568}, "uid": "672803f21eab69ac1b94c6e9"}]}, {"status": 0, "message": "ok", "results": [{"name": "\u5510\u7389\u534e\u5bab\u98ce\u666f\u540d\u80dc\u533a", "location": {"lat": 35.330142, "lng": 108.920788}, "address": "\u9655\u897f\u7701\u94dc\u5ddd\u5e02\u5370\u53f0\u533a\u7389\u534e\u516c\u8def\u9644\u8fd1", "province": "\u9655\u897f\u7701", "city": "\u94dc\u5ddd\u5e02", "area": "\u5b9c\u541b\u53bf", "street_id": "d6ee8724f46480e3a8f0cdec", "telephone": "(0919)7586001", "detail": 1, "uid": "d6ee8724f46480e3a8f0cdec"}, {"name": "\u7389\u534e\u5bab-\u505c\u8f66\u573a", "location": {"lat": 35.349406, "lng": 108.957594}, "address": "305\u7701\u9053", "province": "\u9655\u897f\u7701", "city": "\u94dc\u5ddd\u5e02", "area": "\u5b9c\u541b\u53bf", "detail": 1, "uid": "c765b02b4cb8d8e9764ff1b3"}, {"name": "\u7389\u534e\u5bab\u98ce\u666f\u533a\u552e\u7968\u5904", "location": {"lat": 35.332178, "lng": 108.908018}, "address": "\u9655\u897f\u7701\u94dc\u5ddd\u5e02\u5370\u53f0\u533a\u91d1\u9501\u5173\u9547\u7389\u534e\u5bab\u98ce\u666f\u533a\u9644\u8fd1", "province": "\u9655\u897f\u7701", "city": "\u94dc\u5ddd\u5e02", "area": "\u5370\u53f0\u533a", "detail": 1, "uid": "b577b30832d56aa64afd3f13"}, {"name": "\u7389\u534e\u5bab\u9152\u5e97", "location": {"lat": 35.334186, "lng": 108.911124}, "address": "\u9655\u897f\u7701\u94dc\u5ddd\u5e02\u5370\u53f0\u533a\u7389\u534e\u5bab\u666f\u533a\u7389\u534e\u5bab\u9152\u5e97", "province": "\u9655\u897f\u7701", "city": "\u94dc\u5ddd\u5e02", "area": "\u5370\u53f0\u533a", "telephone": "(0919)7762288", "detail": 1, "uid": "06db3d07f430b28830169bea"}, {"name": "\u7389\u534e\u5bab\u98ce\u666f\u533a-\u897f\u95e8", "location": {"lat": 35.332032, "lng": 108.907818}, "address": "\u7389\u534e\u5bab\u98ce\u666f\u533a\u897f", "province": "\u9655\u897f\u7701", "city": "\u94dc\u5ddd\u5e02", "area": "\u5370\u53f0\u533a", "detail": 1, "uid": "170cf7760f4be6b26fc02c18"}, {"name": "\u7389\u534e\u5bab\u98ce\u666f\u533a-\u5357\u95e8", "location": {"lat": 35.338803, "lng": 108.938966}, "address": "\u9655\u897f\u7701\u94dc\u5ddd\u5e02\u5b9c\u541b\u53bf\u7389\u534e\u5bab\u98ce\u666f\u533a\u5357", "province": "\u9655\u897f\u7701", "city": "\u94dc\u5ddd\u5e02", "area": "\u5b9c\u541b\u53bf", "detail": 1, "uid": "d61797c41f85415588fc066b"}, {"name": "\u7389\u534e\u5bab\u7ba1\u7406\u5c40", "location": {"lat": 35.341038, "lng": 108.937489}, "address": "\u7389\u534e\u5bab\u666f\u533a\u5185", "province": "\u9655\u897f\u7701", "city": "\u94dc\u5ddd\u5e02", "area": "\u5b9c\u541b\u53bf", "detail": 1, "uid": "18c158e14e5241c52b201aa9"}, {"name": "\u94dc\u5ddd\u5e02\u7389\u534e\u5bab\u7ba1\u7406\u5c40", "location": {"lat": 34.903008, "lng": 108.951567}, "address": "\u6b63\u9633\u8def9", "province": "\u9655\u897f\u7701", "city": "\u94dc\u5ddd\u5e02", "area": "\u8000\u5dde\u533a", "street_id": "ffd6d40395cb9ff117b54b66", "detail": 1, "uid": "ffd6d40395cb9ff117b54b66"}, {"name": "\u7389\u534e\u5bab\u7acb\u4ea4", "location": {"lat": 35.363453, "lng": 108.984897}, "address": "\u9655\u897f\u7701\u94dc\u5ddd\u5e02\u5b9c\u541b\u53bf", "province": "\u9655\u897f\u7701", "city": "\u94dc\u5ddd\u5e02", "area": "\u5b9c\u541b\u53bf", "detail": 0, "uid": "037fcf29e5f1bd4cf603b8b4"}, {"name": "\u7389\u534e\u5bab\u9152\u5e97-\u684c\u7403\u5ba4", "location": {"lat": 35.334185, "lng": 108.911124}, "address": "\u9655\u897f\u7701\u94dc\u5ddd\u5e02\u5370\u53f0\u533a\u7389\u534e\u5bab\u9152\u5e97(\u7389\u534e\u5bab\u98ce\u666f\u533a\u897f)", "province": "\u9655\u897f\u7701", "city": "\u94dc\u5ddd\u5e02", "area": "\u5370\u53f0\u533a", "telephone": "(0919)7762288", "detail": 1, "uid": "fd66dad660a193ba5bbbbc9c"}]}, {"status": 0, "message": "ok", "results": [{"name": "\u5bcc\u53bf", "location": {"lat": 35.993367, "lng": 109.386599}, "uid": "4606a2382e18d696f8f0cbe9"}]}]