[{"status": 0, "message": "ok", "results": [{"name": "西安", "location": {"lat": 34.347269, "lng": 108.946465}, "uid": "6004101013367be6b817e7e7"}]}, {"status": 0, "message": "ok", "results": [{"name": "宁波", "location": {"lat": 29.866034, "lng": 121.628572}, "uid": "e705d338996927a040ab9ae7"}]}, {"status": 0, "message": "ok", "results": [{"name": "忠县", "location": {"lat": 30.305268, "lng": 108.04454}, "uid": "6b2fceb291be753e07026fea"}]}, {"status": 0, "message": "ok", "results": [{"name": "郴州", "location": {"lat": 25.776683, "lng": 113.021458}, "uid": "59d0bad4f7fadd4ea5da39e7"}]}, {"status": 0, "message": "ok", "results": [{"name": "鄱阳", "location": {"lat": 29.011453, "lng": 116.710565}, "uid": "cae3050c8703c20b0a5cb3ed"}]}, {"status": 0, "message": "ok", "results": [{"name": "西安", "location": {"lat": 34.347269, "lng": 108.946465}, "uid": "6004101013367be6b817e7e7"}]}, {"status": 0, "message": "ok", "results": [{"name": "扬州", "location": {"lat": 32.400676, "lng": 119.419423}, "uid": "9e133d19c0cfce470f0a70e7"}]}, {"status": 0, "message": "ok", "results": [{"name": "西安", "location": {"lat": 34.347269, "lng": 108.946465}, "uid": "6004101013367be6b817e7e7"}]}, {"status": 0, "message": "ok", "results": [{"name": "太原", "location": {"lat": 37.87699, "lng": 112.556396}, "uid": "f08c6b2e48c2934cd2f49ee7"}]}, {"status": 0, "message": "ok", "results": [{"name": "西安", "location": {"lat": 34.347269, "lng": 108.946465}, "uid": "6004101013367be6b817e7e7"}]}, {"status": 0, "message": "ok", "results": [{"name": "镇江", "location": {"lat": 32.194717, "lng": 119.43049}, "uid": "dbb3f15e7d51c145364aaee7"}]}, {"status": 0, "message": "ok", "results": [{"name": "华阴", "location": {"lat": 34.571801, "lng": 110.098605}, "uid": "59143023ffd171b4e50738e9"}]}, {"status": 0, "message": "ok", "results": [{"name": "西安", "location": {"lat": 34.347269, "lng": 108.946465}, "uid": "6004101013367be6b817e7e7"}]}, {"status": 0, "message": "ok", "results": [{"name": "滑县", "location": {"lat": 35.581044, "lng": 114.525553}, "uid": "b2557f17034f2e3f59bbbce9"}]}, {"status": 0, "message": "ok", "results": [{"name": "华阴", "location": {"lat": 34.571801, "lng": 110.098605}, "uid": "59143023ffd171b4e50738e9"}]}, {"status": 0, "message": "ok", "results": [{"name": "剑阁", "location": {"lat": 32.293478, "lng": 105.531575}, "uid": "3e2b636a35284eacd618b7ef"}]}, {"status": 0, "message": "ok", "results": [{"name": "广汉", "location": {"lat": 30.982415, "lng": 104.288419}, "uid": "91f04b5eb209994de6e965e4"}]}, {"status": 0, "message": "ok", "results": [{"name": "成都", "location": {"lat": 30.655823, "lng": 104.08153}, "uid": "df3970fe28cd251103ec01e6"}]}, {"status": 0, "message": "ok", "results": [{"name": "西安", "location": {"lat": 34.347269, "lng": 108.946465}, "uid": "6004101013367be6b817e7e7"}]}, {"status": 0, "message": "ok", "results": [{"name": "临汝", "location": {"lat": 34.26471, "lng": 112.610147}, "address": "平顶山市汝州市", "province": "河南省", "city": "平顶山市", "area": "汝州市", "detail": 1, "uid": "4eb3b533cd68e17542024582"}, {"name": "临汝镇上三张小学", "location": {"lat": 34.282355, "lng": 112.658605}, "address": "河南省平顶山市汝州市临汝镇狮子张村", "province": "河南省", "city": "平顶山市", "area": "汝州市", "detail": 1, "uid": "c56bb60659bea6852d4733e0"}, {"name": "刘家皮鞋", "location": {"lat": 34.266018, "lng": 112.608857}, "address": "临汝镇车站隔壁", "province": "河南省", "city": "平顶山市", "area": "汝州市", "telephone": "15837534007", "detail": 1, "uid": "db8b2c6525b30523fe0eb062"}, {"name": "老临汝烧烤", "location": {"lat": 34.164309, "lng": 112.838769}, "address": "河南省平顶山市汝州市西环路", "province": "河南省", "city": "平顶山市", "area": "汝州市", "detail": 1, "uid": "29a44e861434ca8e38221cbb"}, {"name": "栗子园(临汝店)", "location": {"lat": 34.265896, "lng": 112.608866}, "address": "238省道附近", "province": "河南省", "city": "平顶山市", "area": "汝州市", "detail": 1, "uid": "d42cb9b7ec7b81643617dcd1"}, {"name": "临汝大小孩童装", "location": {"lat": 34.265448, "lng": 112.611749}, "address": "河南省平顶山市汝州市S238", "province": "河南省", "city": "平顶山市", "area": "汝州市", "telephone": "15637598235", "detail": 1, "uid": "d108cf5471f5529d04026f4c"}, {"name": "九阳临汝专卖店", "location": {"lat": 34.266287, "lng": 112.609589}, "address": "临汝镇车站街89号附近", "province": "河南省", "city": "平顶山市", "area": "汝州市", "detail": 1, "uid": "40316c8ba06211808c1a8941"}, {"name": "世纪隆购物广场(临汝店)", "location": {"lat": 34.266287, "lng": 112.609589}, "address": "临汝镇车站对面", "province": "河南省", "city": "平顶山市", "area": "汝州市", "detail": 1, "uid": "dbc203bd085a6a9ff7e73b03"}, {"name": "临汝七星手机卖场", "location": {"lat": 34.265919, "lng": 112.609248}, "address": "临汝镇商业街", "province": "河南省", "city": "平顶山市", "area": "汝州市", "detail": 1, "uid": "0f329ce992a36637744ff174"}, {"name": "临汝镇临东电子磅", "location": {"lat": 34.26732, "lng": 112.618807}, "address": "平顶山市汝州市238省道附近", "province": "河南省", "city": "平顶山市", "area": "汝州市", "detail": 1, "uid": "1a6497d13cb888d5f02d83d6"}]}, {"status": 0, "message": "ok", "results": [{"name": "镇江", "location": {"lat": 32.194717, "lng": 119.43049}, "uid": "dbb3f15e7d51c145364aaee7"}]}, {"status": 0, "message": "ok", "results": [{"name": "和县", "location": {"lat": 31.748244, "lng": 118.359512}, "uid": "6b2cceb291be753e07026fe9"}]}, {"status": 0, "message": "ok", "results": [{"name": "九江", "location": {"lat": 29.71134, "lng": 116.007533}, "uid": "2afff4088a3d3ac08bdb73e7"}]}, {"status": 0, "message": "ok", "results": [{"name": "宜春", "location": {"lat": 27.820856, "lng": 114.42356}, "uid": "72f65ed8b4becfaea2a934e7"}]}, {"status": 0, "message": "ok", "results": [{"name": "丰城", "location": {"lat": 28.166615, "lng": 115.777477}, "uid": "6002101013367be6b817e7e9"}]}, {"status": 0, "message": "ok", "results": [{"name": "九江", "location": {"lat": 29.71134, "lng": 116.007533}, "uid": "2afff4088a3d3ac08bdb73e7"}]}, {"status": 0, "message": "ok", "results": [{"name": "和县", "location": {"lat": 31.748244, "lng": 118.359512}, "uid": "6b2cceb291be753e07026fe9"}]}, {"status": 0, "message": "ok", "results": [{"name": "滁州", "location": {"lat": 32.261271, "lng": 118.339408}, "uid": "d7efeda365df78a85b1093e7"}]}, {"status": 0, "message": "ok", "results": [{"name": "洛阳", "location": {"lat": 34.624264, "lng": 112.459424}, "uid": "3e23636a35284eacd618b7e7"}]}, {"status": 0, "message": "ok", "results": [{"name": "镇江", "location": {"lat": 32.194717, "lng": 119.43049}, "uid": "dbb3f15e7d51c145364aaee7"}]}, {"status": 0, "message": "ok", "results": [{"name": "扬州", "location": {"lat": 32.400676, "lng": 119.419423}, "uid": "9e133d19c0cfce470f0a70e7"}]}, {"status": 0, "message": "ok", "results": [{"name": "洛阳", "location": {"lat": 34.624264, "lng": 112.459424}, "uid": "3e23636a35284eacd618b7e7"}]}]